id,annee,Organisme,code zas,Zas,code site,nom site,type d'implantation,Polluant,type d'influence,discriminant,Réglementaire,type d'évaluation,procédure de mesure,type de valeur,valeur,valeur brute,unité de mesure,taux de saisie,couverture temporelle,couverture de données,code qualité,validité,Latitude,Longitude
3113,2013,ATMO BOURGOGNE-FRANCHE-COMTE,FR17N20,FRANCHE-COMTE-ZR,FR82060,Vesoul Pres Caillet,Urbaine,PM10,Fond,2,Oui,mesures fixes,,Moy. annuelle,15.0,15.374792339640464,µg-m3,99.0,100,99.0,R,1,47.62,6.157611
3102,2013,QUALITAIR CORSE,FR41N10,CORSE-ZUR,FR41022,AJACCIO DIAMANT,Urbaine,PM10,Trafic,1,Oui,mesures fixes,,Moy. annuelle,30.0,29.77377302589007,µg-m3,95.0,94,89.0,R,1,41.918306,8.736778
3111,2013,ATMO BOURGOGNE-FRANCHE-COMTE,FR17N10,FRANCHE-COMTE-ZUR,FR82043,Chatenois,Périurbaine,PM10,Industrielle,1,Oui,mesures fixes,,Moy. annuelle,13.0,13.269844357977163,µg-m3,100.0,100,100.0,R,1,47.14725,5.5561169999999995
3110,2013,ATMO BOURGOGNE-FRANCHE-COMTE,FR17N10,FRANCHE-COMTE-ZUR,FR82040,Dole centre,Urbaine,PM10,Fond,SPO,Oui,mesures fixes,,Moy. annuelle,27.0,27.093178394664196,µg-m3,97.0,55,53.0,N,-1,47.09672,5.496389
3109,2013,ATMO BOURGOGNE-FRANCHE-COMTE,FR17N20,FRANCHE-COMTE-ZR,FR82030,Montandon Baresans,Rurale nationale,PM10,Fond,1,Oui,mesures fixes,,Moy. annuelle,16.0,16.319841543231494,µg-m3,99.0,100,99.0,R,1,47.29464,6.825861
3108,2013,ATMO BOURGOGNE-FRANCHE-COMTE,FR17N10,FRANCHE-COMTE-ZUR,FR82020,Belfort Octroi,Urbaine,PM10,Trafic,2,Oui,mesures fixes,,Moy. annuelle,24.0,24.123412421491352,µg-m3,98.0,100,98.0,R,1,47.640667,6.859278
3107,2013,ATMO BOURGOGNE-FRANCHE-COMTE,FR17N10,FRANCHE-COMTE-ZUR,FR82010,Montbéliard centre,Urbaine,PM10,Fond,1,Oui,mesures fixes,,Moy. annuelle,27.0,26.682895498204275,µg-m3,99.0,100,99.0,R,1,47.510307,6.794
3106,2013,ATMO BOURGOGNE-FRANCHE-COMTE,FR17N10,FRANCHE-COMTE-ZUR,FR82006,Besancon Prevoyance,Urbaine,PM10,Fond,1,Oui,mesures fixes,,Moy. annuelle,26.0,25.700099469496585,µg-m3,98.0,35,34.0,N,-1,47.2474,6.0154190000000005
3105,2013,ATMO BOURGOGNE-FRANCHE-COMTE,FR17N10,FRANCHE-COMTE-ZUR,FR82003,Besancon Planoise,Urbaine,PM10,Fond,2,Oui,mesures fixes,,Moy. annuelle,27.0,27.344909136172145,µg-m3,99.0,46,46.0,N,-1,47.221973,5.971556
3104,2013,ATMO BOURGOGNE-FRANCHE-COMTE,FR17N10,FRANCHE-COMTE-ZUR,FR82002,Besancon Victor Hugo,Urbaine,PM10,Trafic,1,Oui,mesures fixes,,Moy. annuelle,29.0,28.69509975498536,µg-m3,98.0,99,98.0,R,1,47.234905,6.029472
3090,2013,ATMO REUNION,FR38N20,REUNION-ZR,FR38017,Grand Coude,Rurale régionale,PM10,Fond,1,Oui,mesures fixes,,Moy. annuelle,11.0,10.853731150921922,µg-m3,95.0,93,89.0,R,1,-21.29433,55.627930000000006
3103,2013,QUALITAIR CORSE,FR41N20,CORSE-ZR,FR41024,VENACO,Rurale régionale,PM10,Fond,1,Oui,mesures fixes,,Moy. annuelle,11.0,11.124642409034708,µg-m3,91.0,99,91.0,R,1,42.236028000000005,9.190028
3091,2013,ATMO REUNION,FR38N20,REUNION-ZR,FR38098,Sarda Garriga,Urbaine,PM10,Trafic,1,Oui,mesures fixes,,Moy. annuelle,20.0,19.825167952226604,µg-m3,93.0,99,92.0,R,1,-21.277075,55.403065000000005
3100,2013,QUALITAIR CORSE,FR41N10,CORSE-ZUR,FR41004,BASTIA LA MARANA,Périurbaine,PM10,Industrielle,,Oui,mesures fixes,,Moy. annuelle,19.0,19.37829265270705,µg-m3,92.0,100,92.0,R,1,42.535833000000004,9.475972
3099,2013,QUALITAIR CORSE,FR41N10,CORSE-ZUR,FR41003,AJACCIO PIATANICCIA,Périurbaine,PM10,Industrielle,2,Oui,mesures fixes,,Moy. annuelle,21.0,21.045782831437467,µg-m3,92.0,99,91.0,R,1,41.958028000000006,8.820278
3098,2013,QUALITAIR CORSE,FR41N10,CORSE-ZUR,FR41002,BASTIA GIRAUD,Urbaine,PM10,Fond,2,Oui,mesures fixes,,Moy. annuelle,18.0,18.07203836930451,µg-m3,96.0,99,95.0,R,1,42.697917,9.446417
3097,2013,QUALITAIR CORSE,FR41N10,CORSE-ZUR,FR41001,AJACCIO CANETTO,Urbaine,PM10,Fond,D,Oui,mesures fixes,,Moy. annuelle,20.0,19.63407175535719,µg-m3,95.0,100,95.0,R,1,41.924694,8.735694
3096,2013,ATMO GUYANE,FR40N10,GUYANE-ZUR,FR40004,STADE NAUTIQUE CAYENNE,Urbaine,PM10,Fond,SPO,Oui,mesures fixes,,Moy. annuelle,31.0,30.71903129657069,µg-m3,83.0,92,77.0,N,-1,4.932214,-52.310226
3095,2013,MADININAIR,FR39N20,MARTINIQUE-ZR,FR39013,Robert Mansarde,Urbaine,PM10,Trafic,1,Oui,mesures fixes,,Moy. annuelle,33.0,33.23421052631577,µg-m3,90.0,98,88.0,R,1,14.675557999999999,-60.94609200000001
3094,2013,MADININAIR,FR39N10,MARTINIQUE-ZUR,FR39011,Reneville,Urbaine,PM10,Trafic,C,Oui,mesures fixes,,Moy. annuelle,37.0,36.71416430594903,µg-m3,89.0,99,89.0,R,1,14.602253,-61.053642
3093,2013,MADININAIR,FR39N10,MARTINIQUE-ZUR,FR39009,Lamentin,Urbaine,PM10,Fond,1,Oui,mesures fixes,,Moy. annuelle,29.0,28.753038869257907,µg-m3,97.0,100,97.0,R,1,14.610653,-61.002586
3101,2013,QUALITAIR CORSE,FR41N10,CORSE-ZUR,FR41020,BASTIA SAINT NICOLAS,Urbaine,PM10,Trafic,1,Oui,mesures fixes,,Moy. annuelle,27.0,27.47784263366601,µg-m3,98.0,100,98.0,R,1,42.700083,9.451722
3089,2013,ATMO REUNION,FR38N10,REUNION-ZUR,FR38016,Station Bourg-Murat,Rurale régionale,PM10,Fond,1,Oui,mesures fixes,,Moy. annuelle,7.0,7.0464199106575025,µg-m3,98.0,91,89.0,R,1,-21.204815,55.58262
3088,2013,ATMO REUNION,FR38N10,REUNION-ZUR,FR38014,Ligne Paradis,Périurbaine,PM10,Fond,1,Oui,mesures fixes,,Moy. annuelle,19.0,19.305197657393574,µg-m3,96.0,97,94.0,R,1,-21.312895,55.474194
3067,2013,LIG'AIR,FR34N10,CENTRE-ZUR,FR34061,Blois nord,Urbaine,PM10,Fond,3,Oui,mesures fixes,,Moy. annuelle,18.0,18.290879440885274,µg-m3,98.0,100,98.0,R,1,47.594256,1.302667
3065,2013,LIG'AIR,FR34N20,CENTRE-ZR,FR34047,Saint-Remy,Périurbaine,PM10,Trafic,1,Oui,mesures fixes,,Moy. annuelle,28.0,28.4902827466821,µg-m3,99.0,100,99.0,R,1,48.760889,1.233639
3087,2013,ATMO REUNION,FR38N10,REUNION-ZUR,FR38013,Rambaud,Urbaine,PM10,Trafic,2,Oui,mesures fixes,,Moy. annuelle,35.0,35.01108326908139,µg-m3,98.0,61,59.0,N,-1,-20.885885000000002,55.473427
3086,2013,ATMO REUNION,FR38N10,REUNION-ZUR,FR38012,Station Bonsenf,Urbaine,PM10,Fond,1,Oui,mesures fixes,,Moy. annuelle,42.0,41.82130013831306,µg-m3,96.0,17,17.0,N,-1,-21.342914999999998,55.471928000000005
3085,2013,ATMO REUNION,FR38N10,REUNION-ZUR,FR38011,Station Luther King,Urbaine,PM10,Fond,1,Oui,mesures fixes,,Moy. annuelle,24.0,24.220145595007736,µg-m3,95.0,81,77.0,N,-1,-21.334406,55.45906
3084,2013,ATMO REUNION,FR38N20,REUNION-ZR,FR38009,Ecole La Marine,Périurbaine,PM10,Trafic,1,Oui,mesures fixes,,Moy. annuelle,18.0,17.765296584781577,µg-m3,96.0,100,95.0,R,1,-20.910585,55.618977
3083,2013,ATMO REUNION,FR38N10,REUNION-ZUR,FR38008,Ecole JOINVILLE,Urbaine,PM10,Fond,1,Oui,mesures fixes,,Moy. annuelle,14.0,13.632570725708199,µg-m3,97.0,96,93.0,R,1,-20.884575,55.453906
3082,2013,ATMO REUNION,FR38N10,REUNION-ZUR,FR38001,LYC. LISLET GEOFFROY,Urbaine,PM10,Fond,1,Oui,mesures fixes,,Moy. annuelle,16.0,16.306566347470195,µg-m3,97.0,95,92.0,R,1,-20.889893,55.46884
3081,2013,GWAD'AIR,FR37N10,GUADELOUPE-ZUR,FR37002,ST de Pointe à Pitre,Urbaine,PM10,Fond,A,Oui,mesures fixes,,Moy. annuelle,24.0,24.475092783504227,µg/m3,97.0,85,83.0,N,-1,16.238056,-61.537539
3080,2013,ATMO AUVERGNE-RHÔNE-ALPES,FR20N20,RHONE-ALPES-ZR,FR36021,Drôme Rurale Sud-SND,Rurale nationale,PM10,Fond,2,Oui,mesures fixes,,Moy. annuelle,6.0,5.713333333333317,µg-m3,83.0,3,3.0,N,-1,44.569443,5.278972
3079,2013,ATMO AUVERGNE-RHÔNE-ALPES,FR20N10,RHONE-ALPES-ZUR,FR36019,Romans-sur-Isère,Urbaine,PM10,Fond,4,Oui,mesures fixes,,Moy. annuelle,22.0,22.438885135135962,µg-m3,68.0,100,68.0,N,-1,45.0425,5.0443
3078,2013,ATMO AUVERGNE-RHÔNE-ALPES,FR20N20,RHONE-ALPES-ZR,FR36005,Drôme Rurale Sud,Rurale régionale,PM10,Fond,2,Oui,mesures fixes,,Moy. annuelle,17.0,16.974056924963648,µg-m3,87.0,96,84.0,N,-1,44.520744,5.089872
3077,2013,ATMO AUVERGNE-RHÔNE-ALPES,FR20N10,RHONE-ALPES-ZUR,FR36003,Valence Trafic,Urbaine,PM10,Trafic,4,Oui,mesures fixes,,Moy. annuelle,22.0,22.177460467310613,µg-m3,97.0,99,97.0,R,1,44.948941999999995,4.88975
3076,2013,ATMO AUVERGNE-RHÔNE-ALPES,FR20N10,RHONE-ALPES-ZUR,FR36001,Valence Périurb. Sud,Périurbaine,PM10,Fond,2,Oui,mesures fixes,,Moy. annuelle,25.0,25.22555362318652,µg-m3,98.0,100,98.0,R,1,44.870243,4.876289
3075,2013,ATMO NOUVELLE-AQUITAINE,FR35N20,LIMOUSIN-ZR,FR35019,SAILLAT - Ipaper,Périurbaine,PM10,Industrielle,A,Oui,mesures fixes,,Moy. annuelle,19.0,18.737113158516376,µg-m3,97.0,100,97.0,R,1,45.87583,0.823889
3074,2013,ATMO NOUVELLE-AQUITAINE,FR35N10,LIMOUSIN-ZUR,FR35010,LIMOGES - Aine,Urbaine,PM10,Trafic,D,Oui,mesures fixes,,Moy. annuelle,18.0,18.025462565862977,µg/m3,93.0,100,93.0,R,1,45.829953,1.254846
3073,2013,ATMO NOUVELLE-AQUITAINE,FR35N10,LIMOUSIN-ZUR,FR35007,PALAIS S/ V.- Garros,Périurbaine,PM10,Fond,A,Oui,mesures fixes,,Moy. annuelle,14.0,13.84828199052134,µg-m3,97.0,99,96.0,R,1,45.869995,1.31
3072,2013,ATMO NOUVELLE-AQUITAINE,FR35N20,LIMOUSIN-ZR,FR35006,TULLE - Hugo,Urbaine,PM10,Fond,A,Oui,mesures fixes,,Moy. annuelle,14.0,13.614912683824215,µg-m3,99.0,100,99.0,R,1,45.26,1.76
3071,2013,ATMO NOUVELLE-AQUITAINE,FR35N20,LIMOUSIN-ZR,FR35005,GUERET - Nicolas,Urbaine,PM10,Fond,A,Oui,mesures fixes,,Moy. annuelle,17.0,16.605397390272934,µg-m3,96.0,100,96.0,R,1,46.17,1.87
3070,2013,ATMO NOUVELLE-AQUITAINE,FR35N10,LIMOUSIN-ZUR,FR35004,BRIVE - Dalton,Urbaine,PM10,Fond,A,Oui,mesures fixes,,Moy. annuelle,16.0,15.69461915580621,µg-m3,95.0,100,95.0,R,1,45.158745,1.5372219999999999
3069,2013,ATMO NOUVELLE-AQUITAINE,FR35N10,LIMOUSIN-ZUR,FR35003,LIMOGES - Présidial,Urbaine,PM10,Fond,B,Oui,mesures fixes,,Moy. annuelle,17.0,17.066842290130772,µg-m3,98.0,100,98.0,R,1,45.8311,1.256875
3068,2013,ATMO NOUVELLE-AQUITAINE,FR35N20,LIMOUSIN-ZR,FR35002,ST JUNIEN - Fontaine,Urbaine,PM10,Fond,A,Oui,mesures fixes,,Moy. annuelle,19.0,19.087087752010213,µg-m3,98.0,100,98.0,R,1,45.89,0.9
3092,2013,MADININAIR,FR39N10,MARTINIQUE-ZUR,FR39008,Ville de Schoelcher,Urbaine,PM10,Fond,,Oui,mesures fixes,,Moy. annuelle,29.0,28.906369731798424,µg-m3,96.0,99,95.0,R,1,14.616389000000002,-61.100792000000006
3015,2013,ATMO NOUVELLE-AQUITAINE,FR31A01,AQUITAINE-BORDEAUX,FR31001,GRAND PARC,Urbaine,PM10,Fond,3,Oui,mesures fixes,,Moy. annuelle,23.0,22.92654512097167,µg-m3,100.0,100,100.0,R,1,44.86139,-0.579444
3066,2013,LIG'AIR,FR34N10,CENTRE-ZUR,FR34051,Chateauroux Sud,Urbaine,PM10,Fond,1,Oui,mesures fixes,,Moy. annuelle,19.0,19.11287396937571,µg-m3,97.0,100,97.0,R,1,46.798278,1.693139
3017,2013,ATMO NOUVELLE-AQUITAINE,FR31A01,AQUITAINE-BORDEAUX,FR31003,BORDEAUX-BASTIDE,Urbaine,PM10,Trafic,4,Oui,mesures fixes,,Moy. annuelle,27.0,27.377040261151794,µg-m3,94.0,100,94.0,R,1,44.849724,-0.5438890000000001
3053,2013,LIG'AIR,FR34A01,CENTRE-ORLEANS,FR34013,Gambetta,Urbaine,PM10,Trafic,3,Oui,mesures fixes,,Moy. annuelle,26.0,25.82592057761725,µg-m3,98.0,97,95.0,R,1,47.907083,1.901139
3062,2013,LIG'AIR,FR34N20,CENTRE-ZR,FR34038,Verneuil,Rurale nationale,PM10,Fond,3,Oui,mesures fixes,,Moy. annuelle,10.0,9.50508474576271,µg-m3,35.0,2,1.0,N,-1,46.814694,2.6100689999999998
3061,2013,LIG'AIR,FR34N20,CENTRE-ZR,FR34034,Vierzon,Urbaine,PM10,Fond,3,Oui,mesures fixes,,Moy. annuelle,19.0,18.863545030498813,µg-m3,96.0,99,95.0,R,1,47.222028,2.073
3060,2013,LIG'AIR,FR34N10,CENTRE-ZUR,FR34032,Leblanc,Urbaine,PM10,Fond,1,Oui,mesures fixes,,Moy. annuelle,19.0,19.282202704264478,µg-m3,99.0,100,99.0,R,1,47.082778000000005,2.405333
3059,2013,LIG'AIR,FR34N10,CENTRE-ZUR,FR34030,Bourges-Baffier,Urbaine,PM10,Trafic,1,Oui,mesures fixes,,Moy. annuelle,25.0,24.70122677465459,µg-m3,98.0,98,96.0,R,1,47.075044,2.4071830000000003
3058,2013,LIG'AIR,FR34A01,CENTRE-ORLEANS,FR34029,La_Source-CNRS,Urbaine,PM10,Fond,1,Oui,mesures fixes,,Moy. annuelle,19.0,18.899688398849506,µg-m3,97.0,99,95.0,R,1,47.83775,1.944667
3057,2013,LIG'AIR,FR34A02,CENTRE-TOURS,FR34028,Pompidou,Urbaine,PM10,Trafic,3,Oui,mesures fixes,,Moy. annuelle,23.0,23.19414508980628,µg-m3,99.0,99,98.0,R,1,47.394639,0.704861
3056,2013,LIG'AIR,FR34A02,CENTRE-TOURS,FR34025,La Bruyère,Urbaine,PM10,Fond,3,Oui,mesures fixes,,Moy. annuelle,23.0,22.652445152592144,µg-m3,96.0,97,93.0,R,1,47.419083,0.682944
3055,2013,LIG'AIR,FR34N10,CENTRE-ZUR,FR34018,Montargis,Urbaine,PM10,Fond,3,Oui,mesures fixes,,Moy. annuelle,20.0,20.408989685888415,µg-m3,97.0,100,97.0,R,1,47.997889,2.7195
3041,2013,ATMO AUVERGNE-RHÔNE-ALPES,FR20N10,RHONE-ALPES-ZUR,FR33120,CHAMONIX,Urbaine,PM10,Fond,2,Oui,mesures fixes,,Moy. annuelle,23.0,22.839601509077173,µg-m3,97.0,100,97.0,R,1,45.9225,6.87
3054,2013,LIG'AIR,FR34A01,CENTRE-ORLEANS,FR34014,St Jean,Urbaine,PM10,Fond,4,Oui,mesures fixes,,Moy. annuelle,25.0,25.09205032885338,µg-m3,99.0,40,40.0,N,-1,47.917398,1.9662580000000003
3042,2013,ATMO AUVERGNE-RHÔNE-ALPES,FR20N10,RHONE-ALPES-ZUR,FR33121,Albertville,Urbaine,PM10,Fond,4,Oui,mesures fixes,,Moy. annuelle,21.0,20.97221344353933,µg-m3,94.0,100,94.0,R,1,45.675,6.389722
3051,2013,ATMO AUVERGNE-RHÔNE-ALPES,FR20N10,RHONE-ALPES-ZUR,FR33305,Bourg-en-Bresse,Urbaine,PM10,Fond,3,Oui,mesures fixes,,Moy. annuelle,18.0,18.152265012291,µg-m3,98.0,100,98.0,R,1,46.211665999999994,5.226389
3050,2013,ATMO AUVERGNE-RHÔNE-ALPES,FR20N10,RHONE-ALPES-ZUR,FR33302,St Germain/Rhône,Rurale près des villes,PM10,Fond,3,Oui,mesures fixes,,Moy. annuelle,13.0,12.742775791286915,µg-m3,90.0,96,86.0,R,1,46.072224,5.820833
3049,2013,ATMO AUVERGNE-RHÔNE-ALPES,FR20N10,RHONE-ALPES-ZUR,FR33232,BOSSONS,Urbaine,PM10,Trafic,2,Oui,mesures fixes,,Moy. annuelle,20.0,20.027483675372494,µg-m3,98.0,100,98.0,R,1,45.907222999999995,6.845833
3048,2013,ATMO AUVERGNE-RHÔNE-ALPES,FR20N10,RHONE-ALPES-ZUR,FR33220,PASSY,Périurbaine,PM10,Fond,4,Oui,mesures fixes,,Moy. annuelle,31.0,30.532493291328464,µg-m3,98.0,99,98.0,R,1,45.92361,6.713611
3047,2013,ATMO AUVERGNE-RHÔNE-ALPES,FR20N10,RHONE-ALPES-ZUR,FR33212,GAILLARD,Urbaine,PM10,Fond,2,Oui,mesures fixes,,Moy. annuelle,24.0,23.55228244539317,µg-m3,99.0,100,99.0,R,1,46.193690000000004,6.214858
3046,2013,ATMO AUVERGNE-RHÔNE-ALPES,FR20N10,RHONE-ALPES-ZUR,FR33211,ANNEMASSE,Urbaine,PM10,Fond,3,Oui,mesures fixes,,Moy. annuelle,20.0,20.067201580052004,µg-m3,93.0,99,92.0,R,1,46.19583,6.240556
3045,2013,ATMO AUVERGNE-RHÔNE-ALPES,FR20N10,RHONE-ALPES-ZUR,FR33202,NOVEL,Urbaine,PM10,Fond,SPO,Oui,mesures fixes,,Moy. annuelle,21.0,20.69095640858841,µg-m3,97.0,90,88.0,R,1,45.916942999999996,6.135555999999999
3044,2013,ATMO AUVERGNE-RHÔNE-ALPES,FR20N10,RHONE-ALPES-ZUR,FR33201,LOVERCHY,Urbaine,PM10,Fond,3,Oui,mesures fixes,,Moy. annuelle,25.0,25.065983366520804,µg-m3,97.0,100,97.0,R,1,45.89528,6.118333
3052,2013,LIG'AIR,FR34A01,CENTRE-ORLEANS,FR34012,La Source,Urbaine,PM10,Fond,1,Oui,mesures fixes,,Moy. annuelle,13.0,13.367320261437905,µg-m3,91.0,2,2.0,N,-1,47.836617,1.9276939999999998
3040,2013,ATMO AUVERGNE-RHÔNE-ALPES,FR20N10,RHONE-ALPES-ZUR,FR33114,St Julien trafic,Périurbaine,PM10,Trafic,4,Oui,mesures fixes,,Moy. annuelle,21.0,21.459581677961832,µg-m3,98.0,99,98.0,R,1,45.251991,6.397194
3039,2013,ATMO AUVERGNE-RHÔNE-ALPES,FR20N10,RHONE-ALPES-ZUR,FR33111,SAINT JEAN,Urbaine,PM10,Fond,SPO,Oui,mesures fixes,,Moy. annuelle,17.0,16.670977318608408,µg-m3,99.0,97,96.0,R,1,45.274723,6.349722
3018,2013,ATMO NOUVELLE-AQUITAINE,FR31A01,AQUITAINE-BORDEAUX,FR31005,BORDEAUX-GAMBETTA,Urbaine,PM10,Trafic,3,Oui,mesures fixes,,Moy. annuelle,24.0,23.51762812577272,µg-m3,93.0,99,92.0,R,1,44.841390000000004,-0.5797220000000001
3063,2013,LIG'AIR,FR34N10,CENTRE-ZUR,FR34042,Lucé,Urbaine,PM10,Fond,2,Oui,mesures fixes,,Moy. annuelle,21.0,20.669844403158415,µg-m3,98.0,100,98.0,R,1,48.439306,1.4687780000000001
3038,2013,ATMO AUVERGNE-RHÔNE-ALPES,FR20N10,RHONE-ALPES-ZUR,FR33102,CHAMBERY LE HAUT,Urbaine,PM10,Fond,2,Oui,mesures fixes,,Moy. annuelle,21.0,20.78336392840656,µg-m3,99.0,100,99.0,R,1,45.59667,5.918611
3037,2013,ATMO AUVERGNE-RHÔNE-ALPES,FR20N10,RHONE-ALPES-ZUR,FR33101,PASTEUR,Urbaine,PM10,Fond,3,Oui,mesures fixes,,Moy. annuelle,22.0,22.42501434308485,µg-m3,99.0,100,99.0,R,1,45.56472,5.928333
3036,2013,ATMO BOURGOGNE-FRANCHE-COMTE,FR26N20,BOURGOGNE-ZR,FR32006,Macon Paul Bert,Périurbaine,PM10,Fond,B,Oui,mesures fixes,,Moy. annuelle,17.0,17.478877808482913,µg-m3,96.0,99,95.0,R,1,46.316171999999995,4.839994
3035,2013,ATMO BOURGOGNE-FRANCHE-COMTE,FR26N20,BOURGOGNE-ZR,FR32005,Montceau-les-Mines,Urbaine,PM10,Fond,B,Oui,mesures fixes,,Moy. annuelle,17.0,17.068166706245783,µg-m3,96.0,100,96.0,R,1,46.678785,4.366893
3034,2013,ATMO BOURGOGNE-FRANCHE-COMTE,FR26N10,BOURGOGNE-ZUR,FR32002,Champforgueil,Périurbaine,PM10,Fond,B,Oui,mesures fixes,,Moy. annuelle,17.0,17.171288416075562,µg-m3,97.0,100,97.0,R,1,46.821056,4.835083
3033,2013,ATMO BOURGOGNE-FRANCHE-COMTE,FR26N10,BOURGOGNE-ZUR,FR32001,Chalon Centre Ville,Urbaine,PM10,Trafic,B,Oui,mesures fixes,,Moy. annuelle,19.0,19.063776307877095,µg-m3,95.0,100,95.0,R,1,46.782311,4.847322
3032,2013,ATMO NOUVELLE-AQUITAINE,FR31N20,AQUITAINE-ZR,FR31041,MONT DE MARSAN,Urbaine,PM10,Trafic,1,Oui,mesures fixes,,Moy. annuelle,22.0,21.744458598725387,µg-m3,99.0,100,99.0,R,1,43.8961,-0.491403
3031,2013,ATMO NOUVELLE-AQUITAINE,FR31N20,AQUITAINE-ZR,FR31040,MARMANDE,Périurbaine,PM10,Trafic,1,Oui,mesures fixes,,Moy. annuelle,24.0,24.25817926515186,µg-m3,98.0,100,98.0,R,1,44.508656,0.142503
3030,2013,ATMO NOUVELLE-AQUITAINE,FR31N10,AQUITAINE-ZUR,FR31039,PAU TOURASSE,Urbaine,PM10,Trafic,2,Oui,mesures fixes,,Moy. annuelle,25.0,25.00237239396011,µg-m3,97.0,98,95.0,R,1,43.31109,-0.352119
3029,2013,ATMO NOUVELLE-AQUITAINE,FR31N20,AQUITAINE-ZR,FR31036,DAX,Urbaine,PM10,Fond,3,Oui,mesures fixes,,Moy. annuelle,24.0,23.96021936549043,µg-m3,97.0,100,97.0,R,1,43.704723,-1.038611
3028,2013,ATMO NOUVELLE-AQUITAINE,FR31N10,AQUITAINE-ZUR,FR31033,PERIGUEUX,Urbaine,PM10,Fond,3,Oui,mesures fixes,,Moy. annuelle,17.0,16.913416927900048,µg-m3,92.0,99,91.0,R,1,45.18972,0.727222
3027,2013,ATMO NOUVELLE-AQUITAINE,FR31N10,AQUITAINE-ZUR,FR31032,AGEN,Urbaine,PM10,Fond,3,Oui,mesures fixes,,Moy. annuelle,18.0,18.11377998155004,µg-m3,99.0,100,99.0,R,1,44.192223,0.623889
3026,2013,ATMO NOUVELLE-AQUITAINE,FR31N20,AQUITAINE-ZR,FR31026,TARTAS Pelletrin,Périurbaine,PM10,Industrielle,2,Oui,mesures fixes,,Moy. annuelle,19.0,19.466778484672865,µg-m3,99.0,100,99.0,R,1,43.838333,-0.810833
3025,2013,ATMO NOUVELLE-AQUITAINE,FR31N20,AQUITAINE-ZR,FR31021,LABASTIDE CEZERACQ,Rurale régionale,PM10,Fond,3,Oui,mesures fixes,,Moy. annuelle,19.0,18.517808749516412,µg-m3,89.0,100,88.0,R,1,43.376276000000004,-0.538192
3024,2013,ATMO NOUVELLE-AQUITAINE,FR31N10,AQUITAINE-ZUR,FR31017,ANGLET,Urbaine,PM10,Trafic,3,Oui,mesures fixes,,Moy. annuelle,25.0,24.539490368201605,µg-m3,98.0,95,94.0,R,1,43.494031,-1.528765
3023,2013,ATMO NOUVELLE-AQUITAINE,FR31N10,AQUITAINE-ZUR,FR31016,SAINT-CROUTS,Urbaine,PM10,Fond,3,Oui,mesures fixes,,Moy. annuelle,20.0,19.76061572597481,µg-m3,83.0,99,82.0,N,-1,43.47972,-1.488056
3022,2013,ATMO NOUVELLE-AQUITAINE,FR31N10,AQUITAINE-ZUR,FR31014,HAMEAU,Urbaine,PM10,Fond,3,Oui,mesures fixes,,Moy. annuelle,18.0,17.805450266320108,µg-m3,92.0,100,92.0,R,1,43.307777,-0.322778
3021,2013,ATMO NOUVELLE-AQUITAINE,FR31N10,AQUITAINE-ZUR,FR31013,BILLERE,Urbaine,PM10,Fond,4,Oui,mesures fixes,,Moy. annuelle,17.0,16.567248800886244,µg-m3,97.0,96,93.0,R,1,43.310833,-0.391111
3020,2013,ATMO NOUVELLE-AQUITAINE,FR31A01,AQUITAINE-BORDEAUX,FR31007,BASSENS,Urbaine,PM10,Fond,2,Oui,mesures fixes,,Moy. annuelle,20.0,20.056803231390578,µg-m3,99.0,100,99.0,R,1,44.900276,-0.514722
3019,2013,ATMO NOUVELLE-AQUITAINE,FR31A01,AQUITAINE-BORDEAUX,FR31006,MERIGNAC,Urbaine,PM10,Trafic,4,Oui,mesures fixes,,Moy. annuelle,24.0,23.892989336927446,µg-m3,94.0,99,93.0,R,1,44.841390000000004,-0.65
3064,2013,LIG'AIR,FR34N20,CENTRE-ZR,FR34046,Dreux Centre,Urbaine,PM10,Fond,2,Oui,mesures fixes,,Moy. annuelle,20.0,20.115386441885335,µg-m3,97.0,99,96.0,R,1,48.729694,1.358472
3014,2013,ATMO GRAND EST,FR30A02,LORRAINE-NANCY,FR30034,Nancy-Charles III,Urbaine,PM10,Fond,F,Oui,mesures fixes,,Moy. annuelle,22.0,22.17439534883555,µg-m3,98.0,100,98.0,R,1,48.68817,6.190430999999999
2944,2013,ATMO GRAND EST,FR01N20,LORRAINE-ZR,FR22017,Volmunster,Rurale régionale,PM10,Fond,,Oui,mesures fixes,,Moy. annuelle,12.0,12.241030195382342,µg-m3,96.0,100,96.0,R,1,49.125977,7.381747
2945,2013,ATMO GRAND EST,FR30N10,LORRAINE-ZUR,FR22019,SCHOENECK (19),Périurbaine,PM10,Fond,A,Oui,mesures fixes,,Moy. annuelle,22.0,21.843239795917526,µg-m3,98.0,100,98.0,R,1,49.220364000000004,6.925833
2722,2013,ATMO GRAND EST,FR01N20,LORRAINE-ZR,FR01001,Longlaville-Ecole,Périurbaine,PM10,Fond,,Oui,mesures fixes,,Moy. annuelle,16.0,15.749093784211672,µg-m3,95.0,99,94.0,R,1,49.535004,5.804447
2992,2013,ATMO HAUTS DE FRANCE,FR06A01,NORD-PAS-DE-CALAIS-DOUAI-BETHUNE-VALENCIENNES,FR28020,Noeux S. Sports,Périurbaine,PM10,Fond,C,Oui,mesures fixes,,Moy. annuelle,23.0,23.330978919311804,µg-m3,96.0,98,94.0,R,1,50.483925,2.6613
3013,2013,ATMO GRAND EST,FR01N20,LORRAINE-ZR,FR30033,Jonville en Woevre,Rurale nationale,PM10,Fond,B,Oui,mesures fixes,,Moy. annuelle,21.0,21.2710492605087,µg-m3,98.0,100,98.0,R,1,49.06583,5.785556
3012,2013,ATMO GRAND EST,FR01N20,LORRAINE-ZR,FR30032,Heming,Rurale près des villes,PM10,Industrielle,D,Oui,mesures fixes,,Moy. annuelle,24.0,23.79780660377163,µg-m3,97.0,100,97.0,R,1,48.694725,6.965275
3011,2013,ATMO GRAND EST,FR30A02,LORRAINE-NANCY,FR30030,Neuves-Maisons,Urbaine,PM10,Industrielle,8,Oui,mesures fixes,,Moy. annuelle,23.0,23.16664694046481,µg-m3,96.0,100,96.0,R,1,48.614914,6.107672
3010,2013,ATMO GRAND EST,FR01N20,LORRAINE-ZR,FR30029,Vittel,Périurbaine,PM10,Fond,5,Oui,mesures fixes,,Moy. annuelle,20.0,20.368437609226717,µg-m3,99.0,99,98.0,R,1,48.19361,5.937222
3009,2013,ATMO GRAND EST,FR01N20,LORRAINE-ZR,FR30027,Frolois,Urbaine,PM10,Industrielle,D,Oui,mesures indicatives,,Moy. annuelle,27.0,27.246565168954525,µg-m3,94.0,98,92.0,R,1,48.565445000000004,6.1295779999999995
3008,2013,ATMO GRAND EST,FR30A02,LORRAINE-NANCY,FR30021,Fléville,Périurbaine,PM10,Fond,1,Oui,mesures fixes,,Moy. annuelle,19.0,19.43771676300529,µg-m3,95.0,100,95.0,R,1,48.621502,6.194922
3007,2013,ATMO GRAND EST,FR01N20,LORRAINE-ZR,FR30020,Bar Le Duc,Urbaine,PM10,Fond,B,Oui,mesures fixes,,Moy. annuelle,21.0,20.940893271461785,µg-m3,98.0,100,98.0,R,1,48.775859999999994,5.162789
2991,2013,ATMO AUVERGNE-RHÔNE-ALPES,FR20A01,RHONE-ALPES-LYON,FR27008,A7 Nord-Isère,Périurbaine,PM10,Trafic,2,Oui,mesures fixes,,Moy. annuelle,25.0,24.573097857554547,µg-m3,99.0,100,99.0,R,1,45.35327,4.8048470000000005
3006,2013,ATMO GRAND EST,FR30N10,LORRAINE-ZUR,FR30019,Epinal,Urbaine,PM10,Fond,,Oui,mesures fixes,,Moy. annuelle,18.0,18.09781158572285,µg-m3,98.0,100,98.0,R,1,48.172779999999996,6.452811
3004,2013,ATMO AUVERGNE-RHÔNE-ALPES,FR29A01,RHONE-ALPES-ST-ETIENNE,FR29439,LA TALAUDIERE,Périurbaine,PM10,Fond,2,Oui,mesures fixes,,Moy. annuelle,18.0,18.105967555040845,µg-m3,99.0,100,99.0,R,1,45.481777,4.429667
3003,2013,ATMO AUVERGNE-RHÔNE-ALPES,FR29A01,RHONE-ALPES-ST-ETIENNE,FR29429,RIVE DE GIER,Périurbaine,PM10,Trafic,4,Oui,mesures fixes,,Moy. annuelle,26.0,25.841953005075396,µg-m3,97.0,100,97.0,R,1,45.533424,4.623939
3002,2013,ATMO AUVERGNE-RHÔNE-ALPES,FR29A01,RHONE-ALPES-ST-ETIENNE,FR29428,ST ETIENNE ROND PT,Urbaine,PM10,Trafic,2,Oui,mesures fixes,,Moy. annuelle,21.0,20.798998964444976,µg-m3,99.0,100,99.0,R,1,45.422079,4.412831
3001,2013,ATMO AUVERGNE-RHÔNE-ALPES,FR29A01,RHONE-ALPES-ST-ETIENNE,FR29426,SAINT-CHAMOND,Urbaine,PM10,Fond,4,Oui,mesures fixes,,Moy. annuelle,21.0,21.092608055009233,µg-m3,93.0,99,93.0,R,1,45.475327,4.515003
3000,2013,ATMO AUVERGNE-RHÔNE-ALPES,FR29A01,RHONE-ALPES-ST-ETIENNE,FR29424,SAINT ETIENNE SUD,Urbaine,PM10,Fond,4,Oui,mesures fixes,,Moy. annuelle,18.0,18.456893715038863,µg-m3,69.0,100,69.0,N,-1,45.42009,4.395422
2999,2013,ATMO AUVERGNE-RHÔNE-ALPES,FR20N10,RHONE-ALPES-ZUR,FR29423,ROANNE,Urbaine,PM10,Fond,5,Oui,mesures fixes,,Moy. annuelle,18.0,17.98532301645791,µg-m3,93.0,100,93.0,R,1,46.041109999999996,4.074656
2998,2013,ATMO AUVERGNE-RHÔNE-ALPES,FR29A01,RHONE-ALPES-ST-ETIENNE,FR29421,COUBERTIN,Périurbaine,PM10,Fond,3,Oui,mesures fixes,,Moy. annuelle,20.0,20.163929313928982,µg-m3,99.0,100,99.0,R,1,45.46672,4.389781
2997,2013,ATMO HAUTS DE FRANCE,FR06A01,NORD-PAS-DE-CALAIS-DOUAI-BETHUNE-VALENCIENNES,FR28131,Lens Stade J. Moulin,Urbaine,PM10,Fond,A,Oui,mesures fixes,,Moy. annuelle,22.0,21.51903261001286,µg-m3,95.0,99,94.0,R,1,50.4368,2.826683
2996,2013,ATMO HAUTS DE FRANCE,FR06A01,NORD-PAS-DE-CALAIS-DOUAI-BETHUNE-VALENCIENNES,FR28028,Bethune Stade,Urbaine,PM10,Fond,E,Oui,mesures fixes,,Moy. annuelle,26.0,25.866523867807132,µg-m3,95.0,98,93.0,R,1,50.535385,2.6356919999999997
3005,2013,ATMO AUVERGNE-RHÔNE-ALPES,FR20A01,RHONE-ALPES-LYON,FR29440,COL_OEILLON,Rurale régionale,PM10,Fond,1,Oui,mesures fixes,,Moy. annuelle,8.0,8.036371659102992,µg-m3,93.0,97,91.0,R,1,45.38958,4.615817
2989,2013,ATMO AUVERGNE-RHÔNE-ALPES,FR20A01,RHONE-ALPES-LYON,FR27004,Vienne Centre,Urbaine,PM10,Fond,2,Oui,mesures fixes,,Moy. annuelle,24.0,23.988673253350626,µg-m3,98.0,99,97.0,R,1,45.52597,4.875408
2968,2013,ATMO SUD,FR03N20,PROVENCE-ALPES-COTE-D-AZUR-ZR,FR24033,GAP COMMANDERIE,Urbaine,PM10,Fond,3,Oui,mesures fixes,,Moy. annuelle,16.0,16.292445679636796,µg-m3,95.0,95,90.0,R,1,44.555193,6.073015
2969,2013,ATMO SUD,FR24A01,PROVENCE-ALPES-COTE-D-AZUR-NICE,FR24035,NICE PROMENADE,Urbaine,PM10,Trafic,1,Oui,mesures fixes,,Moy. annuelle,35.0,34.94566838046091,µg-m3,91.0,98,89.0,R,1,43.689291,7.242074000000001
3112,2013,ATMO BOURGOGNE-FRANCHE-COMTE,FR17N20,FRANCHE-COMTE-ZR,FR82050,Lons-le-Saunier CV,Urbaine,PM10,Fond,2,Oui,mesures fixes,,Moy. annuelle,19.0,19.197452378169636,µg-m3,98.0,99,98.0,R,1,46.671307,5.556806
2990,2013,ATMO AUVERGNE-RHÔNE-ALPES,FR20N10,RHONE-ALPES-ZUR,FR27007,Bourgoin-Jallieu,Urbaine,PM10,Fond,5,Oui,mesures fixes,,Moy. annuelle,17.0,17.486611570247828,µg-m3,92.0,98,90.0,R,1,45.60822,5.270872
2988,2013,ATMO AUVERGNE-RHÔNE-ALPES,FR20A01,RHONE-ALPES-LYON,FR27002,ROUSSILLON,Urbaine,PM10,Fond,2,Oui,mesures fixes,,Moy. annuelle,24.0,23.61686095421087,µg-m3,97.0,98,95.0,R,1,45.36782,4.805147
2987,2013,ATMO BOURGOGNE-FRANCHE-COMTE,FR26N20,BOURGOGNE-ZR,FR26035,Nuits-Saint-Georges,Périurbaine,PM10,Trafic,B,Oui,mesures fixes,,Moy. annuelle,22.0,22.073825820155708,µg-m3,97.0,100,97.0,R,1,47.137231,4.950573
2986,2013,ATMO BOURGOGNE-FRANCHE-COMTE,FR26N20,BOURGOGNE-ZR,FR26019,Auxerre,Urbaine,PM10,Fond,B,Oui,mesures fixes,,Moy. annuelle,19.0,18.662692034979948,µg-m3,97.0,99,97.0,R,1,47.800575,3.576189
2985,2013,ATMO BOURGOGNE-FRANCHE-COMTE,FR26N10,BOURGOGNE-ZUR,FR26017,Nevers,Urbaine,PM10,Fond,B,Oui,mesures fixes,,Moy. annuelle,15.0,15.390202391904532,µg-m3,99.0,100,99.0,R,1,46.996828,3.171092
2984,2013,ATMO BOURGOGNE-FRANCHE-COMTE,FR26N20,BOURGOGNE-ZR,FR26016,Sens,Urbaine,PM10,Fond,B,Oui,mesures fixes,,Moy. annuelle,18.0,18.006315666588982,µg-m3,98.0,99,98.0,R,1,48.200435999999996,3.2773
2983,2013,ATMO BOURGOGNE-FRANCHE-COMTE,FR26N10,BOURGOGNE-ZUR,FR26014,Dijon Trémouille,Urbaine,PM10,Fond,B,Oui,mesures fixes,,Moy. annuelle,19.0,18.80612618802213,µg-m3,100.0,100,100.0,R,1,47.325744,5.041056
2982,2013,ATMO BOURGOGNE-FRANCHE-COMTE,FR26N10,BOURGOGNE-ZUR,FR26005,Dijon Péjoces,Périurbaine,PM10,Fond,A,Oui,mesures fixes,,Moy. annuelle,20.0,19.549108272925203,µg-m3,99.0,100,99.0,R,1,47.307368,5.065881
2981,2013,ATMO BOURGOGNE-FRANCHE-COMTE,FR26N10,BOURGOGNE-ZUR,FR26001,Station PASTEUR,Urbaine,PM10,Trafic,B,Oui,mesures fixes,,Moy. annuelle,19.0,19.148385037661352,µg-m3,89.0,100,89.0,R,1,47.31861,5.041389
2980,2013,ATMO NORMANDIE,FR25N20,HAUTE-NORMANDIE-ZR,FR25051,Dieppe prox-auto,Urbaine,PM10,Trafic,,Oui,mesures fixes,,Moy. annuelle,24.0,24.484484372076626,µg-m3,86.0,71,61.0,N,-1,49.918007,1.073972
2979,2013,ATMO NORMANDIE,FR25N20,HAUTE-NORMANDIE-ZR,FR25049,Base loisirs Poses,Rurale près des villes,PM10,Fond,1,Oui,mesures fixes,,Moy. annuelle,20.0,19.505577035734614,µg-m3,97.0,100,97.0,R,1,49.30487,1.214367
2978,2013,ATMO NORMANDIE,FR25A01,HAUTE-NORMANDIE-ROUEN,FR25048,Petit Quevilly,Urbaine,PM10,Fond,B,Oui,mesures fixes,,Moy. annuelle,25.0,25.47223198593824,µg-m3,97.0,100,97.0,R,1,49.42815,1.058025
2977,2013,ATMO NORMANDIE,FR25N20,HAUTE-NORMANDIE-ZR,FR25045,Phare d Ailly,Rurale près des villes,PM10,Fond,SPO,Oui,mesures fixes,,Moy. annuelle,18.0,17.981479684657582,µg-m3,95.0,99,94.0,R,1,49.916363,0.9571780000000001
2976,2013,ATMO NORMANDIE,FR25A01,HAUTE-NORMANDIE-ROUEN,FR25043,Centre Hospitalier,Urbaine,PM10,Fond,B,Oui,mesures fixes,,Moy. annuelle,25.0,24.87309941520465,µg-m3,97.0,6,6.0,N,-1,49.4005,1.099042
2975,2013,ATMO NORMANDIE,FR25N10,HAUTE-NORMANDIE-ZUR,FR25039,Evreux Centre,Urbaine,PM10,Fond,1,Oui,mesures fixes,,Moy. annuelle,21.0,21.33575851393121,µg-m3,96.0,100,96.0,R,1,49.02134,1.148319
2974,2013,ATMO NORMANDIE,FR25A01,HAUTE-NORMANDIE-ROUEN,FR25037,Rouen Le Conquerant,Urbaine,PM10,Trafic,B,Oui,mesures fixes,,Moy. annuelle,30.0,29.883700750466215,µg-m3,98.0,99,97.0,R,1,49.441463,1.0826559999999998
2973,2013,ATMO NORMANDIE,FR25A01,HAUTE-NORMANDIE-ROUEN,FR25036,Espace du Palais,Urbaine,PM10,Fond,B,Oui,mesures fixes,,Moy. annuelle,22.0,21.993412305088,µg-m3,94.0,100,94.0,R,1,49.442358,1.093789
2972,2013,ATMO NORMANDIE,FR25A01,HAUTE-NORMANDIE-ROUEN,FR25035,Gd Couronne Mairie,Urbaine,PM10,Industrielle,C,Oui,mesures fixes,,Moy. annuelle,23.0,22.767617178479018,µg-m3,99.0,100,99.0,R,1,49.358215,1.007853
2971,2013,ATMO SUD,FR03N20,PROVENCE-ALPES-COTE-D-AZUR-ZR,FR24038,GAP JEAN JAURES,Urbaine,PM10,Trafic,2,Oui,mesures fixes,,Moy. annuelle,22.0,22.432913385826787,µg-m3,94.0,100,94.0,R,1,44.548646999999995,6.067237
2970,2013,ATMO SUD,FR24A01,PROVENCE-ALPES-COTE-D-AZUR-NICE,FR24036,NICE ARSON,Urbaine,PM10,Fond,2,Oui,mesures fixes,,Moy. annuelle,29.0,29.306752835663644,µg-m3,91.0,48,43.0,N,-1,43.702075,7.286256
2995,2013,ATMO HAUTS DE FRANCE,FR06A01,NORD-PAS-DE-CALAIS-DOUAI-BETHUNE-VALENCIENNES,FR28027,Evin Stade,Périurbaine,PM10,Fond,SPO,Oui,mesures fixes,,Moy. annuelle,23.0,23.409288606128978,µg-m3,99.0,100,99.0,R,1,50.43464,3.02964
2994,2013,ATMO HAUTS DE FRANCE,FR06A01,NORD-PAS-DE-CALAIS-DOUAI-BETHUNE-VALENCIENNES,FR28023,Wingles IME,Périurbaine,PM10,Industrielle,A,Oui,mesures fixes,,Moy. annuelle,22.0,22.496844082654523,µg-m3,95.0,96,91.0,R,1,50.496506,2.86725
2993,2013,ATMO HAUTS DE FRANCE,FR11N10,NORD-PAS-DE-CALAIS-ZUR,FR28022,St-Laurent-Blangy,Périurbaine,PM10,Fond,SPO,Oui,mesures fixes,,Moy. annuelle,23.0,23.101561602937693,µg-m3,99.0,100,99.0,R,1,50.308859999999996,2.807369
2967,2013,ATMO SUD,FR24A01,PROVENCE-ALPES-COTE-D-AZUR-NICE,FR24023,CONTES 2,Périurbaine,PM10,Fond,2,Oui,mesures fixes,,Moy. annuelle,30.0,29.568657256603192,µg-m3,95.0,100,95.0,R,1,43.788748,7.332382000000001
2941,2013,ATMO GRAND EST,FR01N20,LORRAINE-ZR,FR22007,Cite Bois Richard(7),Périurbaine,PM10,Industrielle,A,Oui,mesures fixes,,Moy. annuelle,14.0,13.847458213256981,µg-m3,99.0,100,99.0,R,1,49.166000000000004,6.734
2942,2013,ATMO GRAND EST,FR01N20,LORRAINE-ZR,FR22009,Ecole de Carling(9),Périurbaine,PM10,Industrielle,A,Oui,mesures indicatives,,Moy. annuelle,18.0,17.95004108463455,µg-m3,97.0,100,97.0,R,1,49.165726,6.716886
2954,2013,AIR PAYS DE LA LOIRE,FR23N10,PAYS DE LA LOIRE-ZUR,FR23123,MAZAGRAN,Urbaine,PM10,Fond,2,Oui,mesures fixes,,Moy. annuelle,19.0,18.951152821225488,µg-m3,99.0,100,99.0,R,1,48.06943,-0.767692
2963,2013,ATMO SUD,FR24A01,PROVENCE-ALPES-COTE-D-AZUR-NICE,FR24007,ANTIBES JEAN MOULIN,Périurbaine,PM10,Fond,2,Oui,mesures fixes,,Moy. annuelle,27.0,26.617765416023804,µg-m3,96.0,100,96.0,R,1,43.598803000000004,7.093153
2962,2013,AIR PAYS DE LA LOIRE,FR23N10,PAYS DE LA LOIRE-ZUR,FR23229,VIEUX SAINT LOUIS,Urbaine,PM10,Trafic,1,Oui,mesures fixes,,Moy. annuelle,25.0,24.814457831325296,µg-m3,86.0,1,1.0,N,-1,48.072517,-0.7732359999999999
2961,2013,AIR PAYS DE LA LOIRE,FR23A01,PAYS DE LA LOIRE-NANTES,FR23188,CIM BOUTEILLERIE,Urbaine,PM10,Fond,2,Oui,mesures fixes,,Moy. annuelle,20.0,19.54323117760599,µg-m3,98.0,96,95.0,R,1,47.2225,-1.5375
2960,2013,AIR PAYS DE LA LOIRE,FR23N10,PAYS DE LA LOIRE-ZUR,FR23182,SOURCES,Urbaine,PM10,Fond,2,Oui,mesures fixes,,Moy. annuelle,19.0,18.620402033271528,µg-m3,99.0,100,99.0,R,1,47.971066,0.22142199999999998
2959,2013,AIR PAYS DE LA LOIRE,FR23A01,PAYS DE LA LOIRE-NANTES,FR23178,PARSCAU DU PLESSIS,Périurbaine,PM10,Industrielle,1,Oui,mesures fixes,,Moy. annuelle,20.0,19.76124514534504,µg-m3,98.0,99,97.0,R,1,47.319157000000004,-2.066953
2958,2013,AIR PAYS DE LA LOIRE,FR23N20,PAYS DE LA LOIRE-ZR,FR23177,SAINT-DENIS D'ANJOU,Rurale régionale,PM10,Fond,3,Oui,mesures fixes,,Moy. annuelle,18.0,18.2721083543094,µg-m3,96.0,99,95.0,R,1,47.787729999999996,-0.44404399999999994
2957,2013,AIR PAYS DE LA LOIRE,FR23N10,PAYS DE LA LOIRE-ZUR,FR23152,DELACROIX,Urbaine,PM10,Fond,2,Oui,mesures fixes,,Moy. annuelle,19.0,18.597673065736068,µg-m3,98.0,100,98.0,R,1,46.6607,-1.436831
2956,2013,AIR PAYS DE LA LOIRE,FR23A01,PAYS DE LA LOIRE-NANTES,FR23140,VICTOR HUGO,Urbaine,PM10,Trafic,1,Oui,mesures fixes,,Moy. annuelle,26.0,25.85125182304139,µg-m3,96.0,98,94.0,R,1,47.204356,-1.552914
2955,2013,AIR PAYS DE LA LOIRE,FR23N20,PAYS DE LA LOIRE-ZR,FR23124,LA TARDIERE,Rurale nationale,PM10,Fond,3,Oui,mesures fixes,,Moy. annuelle,16.0,15.783194540828802,µg-m3,99.0,100,99.0,R,1,46.656684999999996,-0.743681
2953,2013,AIR PAYS DE LA LOIRE,FR23N10,PAYS DE LA LOIRE-ZUR,FR23120,BEAUX ARTS,Urbaine,PM10,Fond,2,Oui,mesures fixes,,Moy. annuelle,19.0,19.296632183907658,µg-m3,99.0,100,99.0,R,1,47.468513,-0.556053
2943,2013,ATMO GRAND EST,FR01N20,LORRAINE-ZR,FR22016,Saint-Avold Centre,Urbaine,PM10,Fond,1,Oui,mesures fixes,,Moy. annuelle,23.0,23.041343167702433,µg-m3,87.0,34,29.0,N,-1,49.104137,6.70375
2952,2013,AIR PAYS DE LA LOIRE,FR23A01,PAYS DE LA LOIRE-NANTES,FR23110,LEON BLUM,Urbaine,PM10,Fond,2,Oui,mesures fixes,,Moy. annuelle,20.0,19.61920355043761,µg-m3,96.0,99,95.0,R,1,47.26412,-2.249858
2951,2013,AIR PAYS DE LA LOIRE,FR23A01,PAYS DE LA LOIRE-NANTES,FR23107,LA CHAUVINIERE,Urbaine,PM10,Fond,2,Oui,mesures fixes,,Moy. annuelle,19.0,18.85215630212072,µg-m3,97.0,98,96.0,R,1,47.252777,-1.573333
2950,2013,AIR PAYS DE LA LOIRE,FR23N10,PAYS DE LA LOIRE-ZUR,FR23078,SAINT EXUPERY,Urbaine,PM10,Fond,2,Oui,mesures fixes,,Moy. annuelle,20.0,19.751134045361685,µg-m3,98.0,97,95.0,R,1,47.054443,-0.8861110000000001
2949,2013,AIR PAYS DE LA LOIRE,FR23A01,PAYS DE LA LOIRE-NANTES,FR23070,S ETIENNE DE MONTLUC,Périurbaine,PM10,Industrielle,2,Oui,mesures fixes,,Moy. annuelle,17.0,16.871141723091906,µg-m3,98.0,99,98.0,R,1,47.28318,-1.783164
2948,2013,AIR PAYS DE LA LOIRE,FR23N20,PAYS DE LA LOIRE-ZR,FR23068,FROSSAY,Rurale près des villes,PM10,Industrielle,3,Oui,mesures fixes,,Moy. annuelle,18.0,17.950916568742887,µg-m3,98.0,99,97.0,R,1,47.24747,-1.9366189999999999
2947,2013,ATMO GRAND EST,FR30N10,LORRAINE-ZUR,FR22054,Station de FORBACH,Urbaine,PM10,Fond,D,Oui,mesures fixes,,Moy. annuelle,23.0,23.34400562521839,µg-m3,97.0,100,97.0,R,1,49.18742,6.910867
2946,2013,ATMO GRAND EST,FR01N20,LORRAINE-ZR,FR22022,SARREGUEMINES,Urbaine,PM10,Fond,B,Oui,mesures fixes,,Moy. annuelle,15.0,14.593816023739127,µg-m3,96.0,100,96.0,R,1,49.118342999999996,7.083539
2940,2013,ATMO GRAND EST,FR01N20,LORRAINE-ZR,FR22004,Freyming-Merlebach,Urbaine,PM10,Fond,A,Oui,mesures fixes,,Moy. annuelle,15.0,14.852103871123171,µg-m3,97.0,49,47.0,N,-1,49.146526,6.815419
3043,2013,ATMO AUVERGNE-RHÔNE-ALPES,FR20N10,RHONE-ALPES-ZUR,FR33122,La Léchère,Rurale près des villes,PM10,Industrielle,3,Oui,mesures fixes,,Moy. annuelle,26.0,26.0215876436766,µg-m3,97.0,98,95.0,R,1,45.53583,6.4711110000000005
2919,2013,ATMO AUVERGNE-RHÔNE-ALPES,FR20A01,RHONE-ALPES-LYON,FR20013,A7 SUD LYONNAIS,Périurbaine,PM10,Trafic,4,Oui,mesures fixes,,Moy. annuelle,38.0,37.945093820959656,µg-m3,96.0,100,96.0,R,1,45.720024,4.818156
2921,2013,ATMO AUVERGNE-RHÔNE-ALPES,FR20A01,RHONE-ALPES-LYON,FR20019,GRANDCLEMENT,Urbaine,PM10,Trafic,4,Oui,mesures fixes,,Moy. annuelle,26.0,25.58716640967836,µg-m3,97.0,99,96.0,R,1,45.758359999999996,4.886214
2966,2013,ATMO SUD,FR24A01,PROVENCE-ALPES-COTE-D-AZUR-NICE,FR24021,PEILLON,Périurbaine,PM10,Industrielle,2,Oui,mesures fixes,,Moy. annuelle,27.0,27.09461648403809,µg-m3,96.0,100,96.0,R,1,43.786583,7.373283
2965,2013,ATMO SUD,FR24A01,PROVENCE-ALPES-COTE-D-AZUR-NICE,FR24020,CAGNES LADOUMEGUE,Urbaine,PM10,Fond,5,Oui,mesures fixes,,Moy. annuelle,24.0,23.597848152658962,µg-m3,84.0,100,84.0,N,-1,43.658335,7.157846000000001
2964,2013,ATMO SUD,FR24A01,PROVENCE-ALPES-COTE-D-AZUR-NICE,FR24009,CANNES BROUSSAILLES,Urbaine,PM10,Fond,2,Oui,mesures fixes,,Moy. annuelle,24.0,23.80333163134962,µg-m3,90.0,100,89.0,R,1,43.558389,7.0059190000000005
2939,2013,ATMO NORMANDIE,FR21N20,BASSE-NORMANDIE-ZR,FR21050,La Coulonche MERA,Rurale nationale,PM10,Fond,A,Oui,mesures fixes,,Moy. annuelle,16.0,16.06166394779788,µg-m3,98.0,100,98.0,R,1,48.645,-0.458333
2938,2013,ATMO NORMANDIE,FR21N20,BASSE-NORMANDIE-ZR,FR21040,Saint-Lô Eglise,Urbaine,PM10,Fond,B,Oui,mesures fixes,,Moy. annuelle,20.0,19.883434807581157,µg-m3,99.0,100,99.0,R,1,49.11639,-1.084722
2937,2013,ATMO NORMANDIE,FR21N10,BASSE-NORMANDIE-ZUR,FR21035,cherbourg doumer,Urbaine,PM10,Fond,,Oui,mesures fixes,,Moy. annuelle,22.0,22.43546924060902,µg-m3,98.0,100,98.0,R,1,49.636390000000006,-1.626667
2936,2013,ATMO NORMANDIE,FR21N20,BASSE-NORMANDIE-ZR,FR21031,Alençon Météo-France,Périurbaine,PM10,Fond,A,Oui,mesures fixes,,Moy. annuelle,18.0,17.70796250148365,µg-m3,97.0,99,96.0,R,1,48.445553000000004,0.11083299999999999
2935,2013,ATMO NORMANDIE,FR21N20,BASSE-NORMANDIE-ZR,FR21021,Lisieux,Urbaine,PM10,Fond,,Oui,mesures fixes,,Moy. annuelle,22.0,21.94044177171248,µg-m3,99.0,100,99.0,R,1,49.147224,0.22722199999999998
2934,2013,ATMO NORMANDIE,FR21N10,BASSE-NORMANDIE-ZUR,FR21019,IFS Caen sud,Urbaine,PM10,Fond,C,Oui,mesures fixes,,Moy. annuelle,20.0,19.68409775306916,µg-m3,99.0,100,99.0,R,1,49.15167,-0.35277800000000004
2933,2013,ATMO NORMANDIE,FR21N10,BASSE-NORMANDIE-ZUR,FR21016,Caen Vaucelles,Urbaine,PM10,Trafic,B,Oui,mesures fixes,,Moy. annuelle,23.0,23.39275448390498,µg-m3,96.0,100,96.0,R,1,49.175278000000006,-0.353611
2932,2013,ATMO NORMANDIE,FR21N10,BASSE-NORMANDIE-ZUR,FR21001,Caen Chemin-Vert,Urbaine,PM10,Fond,,Oui,mesures fixes,,Moy. annuelle,21.0,21.418749277538886,µg-m3,99.0,100,99.0,R,1,49.19222,-0.391111
2931,2013,ATMO AUVERGNE-RHÔNE-ALPES,FR20A01,RHONE-ALPES-LYON,FR20068,VILLEFRANCHE PERIURB,Périurbaine,PM10,Fond,2,Oui,mesures fixes,,Moy. annuelle,23.0,23.276873321941697,µg-m3,98.0,96,94.0,R,1,45.936275,4.796111
2930,2013,ATMO AUVERGNE-RHÔNE-ALPES,FR20A01,RHONE-ALPES-LYON,FR20062,LYON Centre,Urbaine,PM10,Fond,2,Oui,mesures fixes,,Moy. annuelle,24.0,23.5147453401388,µg-m3,97.0,99,96.0,R,1,45.757732,4.854214
2929,2013,ATMO AUVERGNE-RHÔNE-ALPES,FR20A01,RHONE-ALPES-LYON,FR20061,VILLEFRANCHE Village,Urbaine,PM10,Fond,4,Oui,mesures fixes,,Moy. annuelle,23.0,22.64864428291089,µg-m3,99.0,100,99.0,R,1,45.986219,4.7196370000000005
2928,2013,ATMO AUVERGNE-RHÔNE-ALPES,FR20A01,RHONE-ALPES-LYON,FR20048,SAINT EXUPERY,Périurbaine,PM10,Fond,2,Oui,mesures fixes,,Moy. annuelle,22.0,21.73590186592827,µg-m3,99.0,100,99.0,R,1,45.7533,5.0722
2927,2013,ATMO AUVERGNE-RHÔNE-ALPES,FR20A01,RHONE-ALPES-LYON,FR20047,COTIERE AIN,Périurbaine,PM10,Fond,2,Oui,mesures fixes,,Moy. annuelle,22.0,22.054088919602588,µg-m3,99.0,100,99.0,R,1,45.823223,4.953958
2926,2013,ATMO AUVERGNE-RHÔNE-ALPES,FR20A01,RHONE-ALPES-LYON,FR20046,VAULX EN VELIN,Urbaine,PM10,Fond,2,Oui,mesures fixes,,Moy. annuelle,23.0,23.38747842099061,µg-m3,99.0,100,99.0,R,1,45.7789,4.9247
2925,2013,ATMO AUVERGNE-RHÔNE-ALPES,FR20A01,RHONE-ALPES-LYON,FR20045,GENAS,Périurbaine,PM10,Fond,2,Oui,mesures fixes,,Moy. annuelle,24.0,23.79135116359688,µg-m3,99.0,100,99.0,R,1,45.7317,4.9803
2924,2013,ATMO AUVERGNE-RHÔNE-ALPES,FR20A01,RHONE-ALPES-LYON,FR20037,TERNAY,Périurbaine,PM10,Fond,2,Oui,mesures fixes,,Moy. annuelle,24.0,23.550785582253514,µg-m3,99.0,100,99.0,R,1,45.6019,4.8022
2923,2013,ATMO AUVERGNE-RHÔNE-ALPES,FR20A01,RHONE-ALPES-LYON,FR20031,ST FONS CENTRE,Périurbaine,PM10,Industrielle,2,Oui,mesures fixes,,Moy. annuelle,26.0,25.508678892650824,µg-m3,99.0,99,98.0,R,1,45.7078,4.8644
2922,2013,ATMO AUVERGNE-RHÔNE-ALPES,FR20A01,RHONE-ALPES-LYON,FR20029,FEYZIN STADE,Périurbaine,PM10,Industrielle,2,Oui,mesures fixes,,Moy. annuelle,25.0,25.20450492182787,µg-m3,99.0,100,99.0,R,1,45.6639,4.8459
2920,2013,ATMO AUVERGNE-RHÔNE-ALPES,FR20A01,RHONE-ALPES-LYON,FR20017,GERLAND,Urbaine,PM10,Fond,2,Oui,mesures fixes,,Moy. annuelle,26.0,25.554301637058202,µg-m3,98.0,100,98.0,R,1,45.73529,4.829794000000001
2918,2013,AIR BREIZH,FR19N20,BRETAGNE-ZR,FR19061,Saint Brieuc Balzac,Urbaine,PM10,Fond,Z,Oui,mesures fixes,,Moy. annuelle,19.0,19.334382076033577,µg-m3,96.0,100,96.0,R,1,48.51351,-2.74953
3016,2013,ATMO NOUVELLE-AQUITAINE,FR31A01,AQUITAINE-BORDEAUX,FR31002,TALENCE,Urbaine,PM10,Fond,2,Oui,mesures fixes,,Moy. annuelle,24.0,23.624867333085394,µg-m3,93.0,100,93.0,R,1,44.800556,-0.588056
2916,2013,AIR BREIZH,FR19N20,BRETAGNE-ZR,FR19051,Quimper Ferry,Urbaine,PM10,Fond,B,Oui,mesures fixes,,Moy. annuelle,21.0,21.242670299728264,µg-m3,97.0,43,42.0,N,-1,47.998158000000004,-4.1041360000000005
2905,2013,ATMO HAUTS DE FRANCE,FR18N10,PICARDIE-ZUR,FR18043,Faiencerie Creil,Urbaine,PM10,Fond,D,Oui,mesures fixes,,Moy. annuelle,22.0,22.35730538922036,µg-m3,95.0,100,95.0,R,1,49.259552,2.474397
2914,2013,AIR BREIZH,FR19N10,BRETAGNE-ZUR,FR19032,Lorient B. Bissonnet,Urbaine,PM10,Fond,Z,Oui,mesures fixes,,Moy. annuelle,20.0,19.86071555925328,µg-m3,98.0,98,96.0,R,1,47.7425,-3.3950099999999996
2913,2013,AIR BREIZH,FR19N10,BRETAGNE-ZUR,FR19014,Brest Desmoulins,Urbaine,PM10,Trafic,Z,Oui,mesures fixes,,Moy. annuelle,20.0,20.264994946942448,µg-m3,90.0,100,90.0,R,1,48.397459999999995,-4.48871
2912,2013,AIR BREIZH,FR19N10,BRETAGNE-ZUR,FR19012,Brest Mace,Urbaine,PM10,Fond,Z,Oui,mesures fixes,,Moy. annuelle,20.0,20.434522951213413,µg-m3,97.0,98,95.0,R,1,48.386179999999996,-4.4866
2911,2013,AIR BREIZH,FR19A01,BRETAGNE-RENNES,FR19005,Rennes Triangle,Urbaine,PM10,Fond,B,Oui,mesures fixes,,Moy. annuelle,18.0,17.917519708201215,µg-m3,98.0,99,97.0,R,1,48.088609999999996,-1.6597220000000001
2910,2013,AIR BREIZH,FR19A01,BRETAGNE-RENNES,FR19002,Rennes Laennec,Urbaine,PM10,Trafic,Z,Oui,mesures fixes,,Moy. annuelle,20.0,20.048003033367365,µg-m3,90.0,100,90.0,R,1,48.10861,-1.66586
2909,2013,ATMO HAUTS DE FRANCE,FR18N20,PICARDIE-ZR,FR18089,Trafic Beauvais 1,Urbaine,PM10,Trafic,,Oui,mesures fixes,,Moy. annuelle,24.0,23.915271241019074,µg-m3,92.0,100,92.0,R,1,49.435932,2.084292
2908,2013,ATMO HAUTS DE FRANCE,FR18N10,PICARDIE-ZUR,FR18079,TRAFIC AMIENS,Urbaine,PM10,Trafic,1,Oui,mesures fixes,,Moy. annuelle,25.0,25.238281925626026,µg-m3,79.0,100,79.0,N,-1,49.87722,2.2825
2907,2013,ATMO HAUTS DE FRANCE,FR18N10,PICARDIE-ZUR,FR18053,St Pierre Amiens,Urbaine,PM10,Fond,A,Oui,mesures fixes,,Moy. annuelle,24.0,23.547225883761104,µg-m3,96.0,99,95.0,R,1,49.901666999999996,2.3045970000000002
2893,2013,ATMO GRAND EST,FR16A02,ALSACE-STRASBOURG,FR16029,STG Nord,Urbaine,PM10,Fond,1,Oui,mesures fixes,,Moy. annuelle,26.0,25.60522648083467,µg-m3,95.0,93,88.0,R,1,48.610363,7.781631
2906,2013,ATMO HAUTS DE FRANCE,FR18N20,PICARDIE-ZR,FR18049,Ville de Chauny,Urbaine,PM10,Fond,SPO,Oui,mesures fixes,,Moy. annuelle,24.0,23.650036170725325,µg-m3,95.0,99,95.0,R,1,49.61311,3.2233419999999997
2894,2013,ATMO GRAND EST,FR16A02,ALSACE-STRASBOURG,FR16034,STG Clemenceau,Urbaine,PM10,Trafic,SPO,Oui,mesures fixes,,Moy. annuelle,30.0,29.74087415946023,µg-m3,95.0,100,95.0,R,1,48.59043,7.744983
2903,2013,ATMO HAUTS DE FRANCE,FR18N20,PICARDIE-ZR,FR18039,Arrest,Rurale régionale,PM10,Fond,A,Oui,mesures fixes,,Moy. annuelle,20.0,19.917147192715422,µg-m3,98.0,99,98.0,R,1,50.129448,1.610833
2902,2013,ATMO HAUTS DE FRANCE,FR18N10,PICARDIE-ZUR,FR18035,Salouel,Périurbaine,PM10,Fond,A,Oui,mesures fixes,,Moy. annuelle,23.0,22.857519880141172,µg-m3,99.0,100,99.0,R,1,49.86889,2.239806
2901,2013,ATMO HAUTS DE FRANCE,FR18N10,PICARDIE-ZUR,FR18019,Nogent sur Oise,Périurbaine,PM10,Fond,A,Oui,mesures fixes,,Moy. annuelle,27.0,27.491509097393273,µg-m3,96.0,100,96.0,R,1,49.276385999999995,2.482167
2900,2013,ATMO GRAND EST,FR16A01,ALSACE-MULHOUSE,FR16066,Mulhouse Sud 2,Urbaine,PM10,Fond,2,Oui,mesures fixes,,Moy. annuelle,23.0,22.71462464589095,µg-m3,98.0,99,97.0,R,1,47.737415000000006,7.309075
2899,2013,ATMO GRAND EST,FR16N20,ALSACE-ZR,FR16060,C.C.3 Frontières,Périurbaine,PM10,Fond,2,Oui,mesures fixes,,Moy. annuelle,21.0,21.01536218359881,µg-m3,98.0,100,98.0,R,1,47.594913,7.568175
2898,2013,ATMO GRAND EST,FR16A01,ALSACE-MULHOUSE,FR16057,Mulhouse Nord,Urbaine,PM10,Fond,0,Oui,mesures fixes,,Moy. annuelle,20.0,19.90801598495491,µg-m3,97.0,100,97.0,R,1,47.757435,7.347294000000001
2897,2013,ATMO GRAND EST,FR16N10,ALSACE-ZUR,FR16054,Colmar Centre,Urbaine,PM10,Fond,SPO,Oui,mesures fixes,,Moy. annuelle,24.0,23.69449541284305,µg-m3,97.0,96,93.0,R,1,48.074642,7.350667
2896,2013,ATMO GRAND EST,FR16A02,ALSACE-STRASBOURG,FR16040,Strasbourg A35,Urbaine,PM10,Trafic,3,Oui,mesures fixes,,Moy. annuelle,32.0,32.49552202183493,µg-m3,93.0,100,93.0,R,1,48.575984999999996,7.727478
2904,2013,ATMO HAUTS DE FRANCE,FR18N20,PICARDIE-ZR,FR18042,P. Roth St Quentin,Urbaine,PM10,Fond,C,Oui,mesures fixes,,Moy. annuelle,22.0,22.380453651196152,µg-m3,99.0,100,99.0,R,1,49.851334,3.284
2892,2013,ATMO GRAND EST,FR16N20,ALSACE-ZR,FR16017,Nord-Est Alsace,Rurale régionale,PM10,Fond,SPO,Oui,mesures fixes,,Moy. annuelle,23.0,23.21078680202888,µg-m3,99.0,100,99.0,R,1,48.919357,8.158458
2891,2013,ATMO AUVERGNE-RHÔNE-ALPES,FR15A01,RHONE-ALPES-GRENOBLE,FR15048,Gresivaudan Periurb,Périurbaine,PM10,Fond,2,Oui,mesures fixes,,Moy. annuelle,22.0,21.814404861193037,µg-m3,97.0,99,96.0,R,1,45.2797,5.8822
2870,2013,ATMO OCCITANIE,FR12N20,MIDI-PYRENEES-ZR,FR12047,BESSIERES,Rurale près des villes,PM10,Industrielle,B,Oui,mesures fixes,,Moy. annuelle,19.0,18.965351288056272,µg-m3,99.0,99,97.0,R,1,43.803139,1.595475
2868,2013,ATMO OCCITANIE,FR12A01,MIDI-PYRENEES-TOULOUSE,FR12044,Aeroport cote trafic,Urbaine,PM10,Industrielle,B,Oui,mesures fixes,,Moy. annuelle,20.0,20.22905436802911,µg-m3,98.0,100,98.0,R,1,43.633478000000004,1.375717
2890,2013,ATMO AUVERGNE-RHÔNE-ALPES,FR15A01,RHONE-ALPES-GRENOBLE,FR15046,Grenoble Boulevards,Urbaine,PM10,Trafic,2,Oui,mesures fixes,,Moy. annuelle,30.0,29.52687106551421,µg-m3,98.0,100,98.0,R,1,45.180690000000006,5.720625
2889,2013,ATMO AUVERGNE-RHÔNE-ALPES,FR15A01,RHONE-ALPES-GRENOBLE,FR15045,Grenoble PeriurbSud,Périurbaine,PM10,Fond,2,Oui,mesures fixes,,Moy. annuelle,23.0,23.06144897488909,µg-m3,99.0,100,99.0,R,1,45.0578,5.6767
2888,2013,ATMO AUVERGNE-RHÔNE-ALPES,FR15A01,RHONE-ALPES-GRENOBLE,FR15043,Grenoble Les Frenes,Urbaine,PM10,Fond,4,Oui,mesures fixes,,Moy. annuelle,24.0,24.234894972856512,µg-m3,98.0,99,97.0,R,1,45.1619,5.7356
2887,2013,ATMO AUVERGNE-RHÔNE-ALPES,FR15A01,RHONE-ALPES-GRENOBLE,FR15039,Le Rondeau,Périurbaine,PM10,Trafic,4,Oui,mesures fixes,,Moy. annuelle,34.0,34.12711499341568,µg-m3,95.0,100,95.0,R,1,45.158363,5.703764
2886,2013,ATMO AUVERGNE-RHÔNE-ALPES,FR15A01,RHONE-ALPES-GRENOBLE,FR15038,St Martin d'Heres,Urbaine,PM10,Fond,2,Oui,mesures fixes,,Moy. annuelle,24.0,23.705848704178056,µg-m3,98.0,100,98.0,R,1,45.1828,5.7531
2885,2013,ATMO AUVERGNE-RHÔNE-ALPES,FR15A01,RHONE-ALPES-GRENOBLE,FR15018,Voiron Urbain,Urbaine,PM10,Fond,2,Oui,mesures fixes,,Moy. annuelle,23.0,23.05464723031946,µg-m3,98.0,99,98.0,R,1,45.360176,5.589419
2884,2013,ATMO AUVERGNE-RHÔNE-ALPES,FR15A01,RHONE-ALPES-GRENOBLE,FR15017,Fontaine Les Balmes,Urbaine,PM10,Fond,2,Oui,mesures fixes,,Moy. annuelle,22.0,22.41174046160986,µg-m3,97.0,99,97.0,R,1,45.190492,5.687023
2883,2013,ATMO GRAND EST,FR14N10,CHAMPAGNE-ARDENNE-ZUR,FR14051,CHARLEVILLE,Urbaine,PM10,Fond,i,Oui,mesures fixes,,Moy. annuelle,20.0,19.67299351944186,µg-m3,92.0,100,92.0,R,1,49.745277,4.719167
2882,2013,ATMO GRAND EST,FR14N20,CHAMPAGNE-ARDENNE-ZR,FR14042,St DIZIER L. Michel,Urbaine,PM10,Fond,i,Oui,mesures fixes,,Moy. annuelle,21.0,20.595357316479657,µg-m3,94.0,100,94.0,R,1,48.645835999999996,4.966111
2881,2013,ATMO GRAND EST,FR14N10,CHAMPAGNE-ARDENNE-ZUR,FR14033,STE SAVINE,Urbaine,PM10,Fond,i,Oui,mesures fixes,,Moy. annuelle,21.0,20.81973350253779,µg-m3,90.0,100,90.0,R,1,48.295002000000004,4.050278
2880,2013,ATMO GRAND EST,FR14N10,CHAMPAGNE-ARDENNE-ZUR,FR14031,LA TOUR,Urbaine,PM10,Fond,i,Oui,mesures fixes,,Moy. annuelle,22.0,22.217119923325683,µg-m3,95.0,100,95.0,R,1,48.301666,4.076944
2879,2013,ATMO GRAND EST,FR14N10,CHAMPAGNE-ARDENNE-ZUR,FR14022,CHALONS,Urbaine,PM10,Fond,i,Oui,mesures fixes,,Moy. annuelle,20.0,19.987971445567318,µg-m3,96.0,100,96.0,R,1,48.962223,4.36
2878,2013,ATMO GRAND EST,FR14N10,CHAMPAGNE-ARDENNE-ZUR,FR14013,VENISE,Urbaine,PM10,Trafic,SPO,Oui,mesures fixes,,Moy. annuelle,27.0,27.468317089016963,µg/m3,91.0,97,88.0,R,1,49.2477,4.034142
2877,2013,ATMO GRAND EST,FR14N10,CHAMPAGNE-ARDENNE-ZUR,FR14012,Jean d Aulan,Urbaine,PM10,Fond,i,Oui,mesures fixes,,Moy. annuelle,23.0,23.446082894104926,µg-m3,95.0,100,95.0,R,1,49.224167,4.020556
2876,2013,ATMO GRAND EST,FR14N10,CHAMPAGNE-ARDENNE-ZUR,FR14011,DOUMER,Urbaine,PM10,Trafic,j,Oui,mesures fixes,,Moy. annuelle,13.0,12.925806451612909,µg-m3,65.0,1,0.0,N,-1,49.250732,4.023064
2875,2013,ATMO GRAND EST,FR14N10,CHAMPAGNE-ARDENNE-ZUR,FR14010,BETHENY,Périurbaine,PM10,Fond,i,Oui,mesures fixes,,Moy. annuelle,23.0,23.376258049129387,µg-m3,97.0,99,96.0,R,1,49.28222,4.051111
2874,2013,ATMO GRAND EST,FR14N20,CHAMPAGNE-ARDENNE-ZR,FR14008,REVIN,Rurale nationale,PM10,Fond,j,Oui,mesures indicatives,,Moy. annuelle,18.0,17.711729701138154,µg-m3,86.0,100,86.0,R,1,49.907779999999995,4.63
2873,2013,ATMO OCCITANIE,FR12A01,MIDI-PYRENEES-TOULOUSE,FR12054,TRAFIC_TOULOUSE,Urbaine,PM10,Trafic,1,Oui,mesures fixes,,Moy. annuelle,23.0,22.861468539722786,µg-m3,97.0,100,97.0,R,1,43.643944,1.468244
2872,2013,ATMO OCCITANIE,FR12N10,MIDI-PYRENEES-ZUR,FR12053,Stade Travet CASTRES,Urbaine,PM10,Fond,3,Oui,mesures fixes,,Moy. annuelle,17.0,16.921234454168626,µg/m3,99.0,100,99.0,R,1,43.610496999999995,2.23015
2871,2013,ATMO OCCITANIE,FR12N10,MIDI-PYRENEES-ZUR,FR12052,Lycée Dupuy à Tarbes,Urbaine,PM10,Fond,1,Oui,mesures fixes,,Moy. annuelle,18.0,17.72792948496423,µg-m3,99.0,100,99.0,R,1,43.230297,0.062339
2895,2013,ATMO GRAND EST,FR16A02,ALSACE-STRASBOURG,FR16038,Strasbourg Est,Urbaine,PM10,Fond,2,Oui,mesures fixes,,Moy. annuelle,27.0,27.453532479847322,µg-m3,73.0,99,72.0,N,-1,48.570374,7.766331
2869,2013,ATMO OCCITANIE,FR12N20,MIDI-PYRENEES-ZR,FR12045,LOURDES PARADIS,Urbaine,PM10,Trafic,C,Oui,mesures fixes,,Moy. annuelle,10.0,10.409178743961352,µg/m3,48.0,5,2.0,N,-1,43.094992,-0.052394
2867,2013,ATMO OCCITANIE,FR12N20,MIDI-PYRENEES-ZR,FR12042,LOURDES LAPACCA,Urbaine,PM10,Fond,C,Oui,mesures fixes,,Moy. annuelle,13.0,12.845812624254412,µg/m3,92.0,100,92.0,R,1,43.096247,-0.040497000000000005
2820,2013,ATMO OCCITANIE,FR08N20,LANGUEDOC-ROUSSILLON-ZR,FR08252,GARNOR03,Périurbaine,PM10,Industrielle,1,Oui,mesures fixes,,Moy. annuelle,18.0,18.214946619216995,µg-m3,98.0,98,96.0,R,1,44.054475,4.697408
2856,2013,ATMO HAUTS DE FRANCE,FR11A01,NORD-PAS-DE-CALAIS-LILLE,FR11025,Lille Fives,Urbaine,PM10,Fond,B,Oui,mesures fixes,,Moy. annuelle,26.0,25.96082702387673,µg-m3,98.0,100,98.0,R,1,50.62805,3.0903099999999997
2865,2013,ATMO OCCITANIE,FR12A01,MIDI-PYRENEES-TOULOUSE,FR12039,EISENHOWER,Urbaine,PM10,Industrielle,B,Oui,mesures fixes,,Moy. annuelle,19.0,18.698852026173856,µg-m3,99.0,100,99.0,R,1,43.561581,1.393261
2864,2013,ATMO OCCITANIE,FR12A01,MIDI-PYRENEES-TOULOUSE,FR12030,BERTHELOT,Urbaine,PM10,Fond,C,Oui,mesures fixes,,Moy. annuelle,19.0,19.32625344986167,µg/m3,99.0,100,99.0,R,1,43.587344,1.4440030000000001
2863,2013,ATMO OCCITANIE,FR12N10,MIDI-PYRENEES-ZUR,FR12026,ALBI DELMAS,Urbaine,PM10,Fond,1,Oui,mesures fixes,,Moy. annuelle,17.0,17.113997927938893,µg-m3,99.0,100,99.0,R,1,43.927769,2.145897
2862,2013,ATMO OCCITANIE,FR12A01,MIDI-PYRENEES-TOULOUSE,FR12021,MAZADES,Urbaine,PM10,Fond,A,Oui,mesures fixes,,Moy. annuelle,20.0,19.920668446095018,µg-m3,98.0,100,98.0,R,1,43.623606,1.438531
2861,2013,ATMO OCCITANIE,FR12N20,MIDI-PYRENEES-ZR,FR12020,PEYRUSSE,Rurale nationale,PM10,Fond,C,Oui,mesures fixes,,Moy. annuelle,15.0,14.872222901137519,µg/m3,94.0,100,93.0,R,1,43.6287,0.179069
2860,2013,ATMO OCCITANIE,FR12A01,MIDI-PYRENEES-TOULOUSE,FR12004,ECOLE M.JACQUIER,Urbaine,PM10,Fond,G,Oui,mesures fixes,,Moy. annuelle,18.0,17.938449017556493,µg/m3,98.0,100,98.0,R,1,43.575694,1.418064
2859,2013,ATMO HAUTS DE FRANCE,FR11A01,NORD-PAS-DE-CALAIS-LILLE,FR11034,Roubaix Serres,Urbaine,PM10,Trafic,A,Oui,mesures fixes,,Moy. annuelle,29.0,28.53661016949041,µg-m3,98.0,100,98.0,R,1,50.706534999999995,3.18066
2858,2013,ATMO HAUTS DE FRANCE,FR11N20,NORD-PAS-DE-CALAIS-ZR,FR11030,Salome Ecoles,Périurbaine,PM10,Fond,SPO,Oui,mesures fixes,,Moy. annuelle,23.0,23.292207635792888,µg-m3,95.0,100,95.0,R,1,50.532032,2.839
2857,2013,ATMO HAUTS DE FRANCE,FR11A01,NORD-PAS-DE-CALAIS-LILLE,FR11027,Tourcoing Centre,Urbaine,PM10,Fond,F,Oui,mesures fixes,,Moy. annuelle,28.0,28.04205017444682,µg-m3,86.0,80,69.0,N,-1,50.7242,3.1590599999999998
2855,2013,ATMO HAUTS DE FRANCE,FR11N10,NORD-PAS-DE-CALAIS-ZUR,FR11022,Armentieres Centre,Urbaine,PM10,Fond,SPO,Oui,mesures fixes,,Moy. annuelle,23.0,22.60322926596589,µg-m3,99.0,97,96.0,R,1,50.68719,2.88004
2845,2013,ATMO HAUTS DE FRANCE,FR11N10,NORD-PAS-DE-CALAIS-ZUR,FR10012,Mardyck,Périurbaine,PM10,Industrielle,B,Oui,mesures fixes,,Moy. annuelle,22.0,22.325998598457755,µg-m3,98.0,100,98.0,R,1,51.01943,2.2509900000000003
2854,2013,ATMO HAUTS DE FRANCE,FR11A01,NORD-PAS-DE-CALAIS-LILLE,FR11016,Marcq CTM,Urbaine,PM10,Fond,C,Oui,mesures fixes,,Moy. annuelle,20.0,20.48676561533705,µg-m3,98.0,19,18.0,N,-1,50.67003,3.0765599999999997
2853,2013,ATMO HAUTS DE FRANCE,FR11N20,NORD-PAS-DE-CALAIS-ZR,FR10132,Campagne les B.,Rurale régionale,PM10,Fond,B,Oui,mesures fixes,,Moy. annuelle,22.0,21.834862273994613,µg-m3,96.0,98,94.0,R,1,50.610479999999995,1.99145
2852,2013,ATMO HAUTS DE FRANCE,FR11N10,NORD-PAS-DE-CALAIS-ZUR,FR10041,St Omer Ribot,Urbaine,PM10,Fond,0,Oui,mesures fixes,,Moy. annuelle,23.0,23.10089949628096,µg-m3,97.0,98,95.0,R,1,50.74823,2.25978
2851,2013,ATMO HAUTS DE FRANCE,FR11N10,NORD-PAS-DE-CALAIS-ZUR,FR10034,Grande-synthe,Urbaine,PM10,Industrielle,A,Oui,mesures fixes,,Moy. annuelle,28.0,28.453912009511498,µg-m3,96.0,100,96.0,R,1,51.02446,2.30215
2850,2013,ATMO HAUTS DE FRANCE,FR11N10,NORD-PAS-DE-CALAIS-ZUR,FR10032,Outreau,Périurbaine,PM10,Fond,0,Oui,mesures fixes,,Moy. annuelle,23.0,22.76958241246813,µg-m3,98.0,100,98.0,R,1,50.69435,1.57657
2849,2013,ATMO HAUTS DE FRANCE,FR11N10,NORD-PAS-DE-CALAIS-ZUR,FR10031,Boulogne Centre,Urbaine,PM10,Trafic,SPO,Oui,mesures fixes,,Moy. annuelle,24.0,24.36884174005848,µg-m3,86.0,100,86.0,R,1,50.71247,1.6081
2848,2013,ATMO HAUTS DE FRANCE,FR11N10,NORD-PAS-DE-CALAIS-ZUR,FR10028,Gravelines PC/Drire,Périurbaine,PM10,Industrielle,,Oui,mesures fixes,,Moy. annuelle,22.0,22.26846351730558,µg-m3,98.0,100,98.0,R,1,50.98106,2.14317
2917,2013,AIR BREIZH,FR19N20,BRETAGNE-ZR,FR19052,Quimper Pommiers,Urbaine,PM10,Trafic,Z,Oui,mesures fixes,,Moy. annuelle,22.0,22.211061889250484,µg-m3,98.0,89,88.0,R,1,47.99612,-4.09972
2846,2013,ATMO HAUTS DE FRANCE,FR11N10,NORD-PAS-DE-CALAIS-ZUR,FR10016,Calais Berthelot,Urbaine,PM10,Fond,F,Oui,mesures fixes,,Moy. annuelle,26.0,26.425095718758758,µg-m3,98.0,100,98.0,R,1,50.94729,1.8430799999999998
2844,2013,ATMO HAUTS DE FRANCE,FR11N10,NORD-PAS-DE-CALAIS-ZUR,FR10007,St Pol/mer Nord,Urbaine,PM10,Industrielle,B,Oui,mesures fixes,,Moy. annuelle,24.0,24.19816154667224,µg-m3,96.0,100,96.0,R,1,51.033809999999995,2.3352
2915,2013,AIR BREIZH,FR19N20,BRETAGNE-ZR,FR19033,Vannes UTA,Urbaine,PM10,Fond,Z,Oui,mesures fixes,,Moy. annuelle,26.0,25.695614035087708,µg-m3,42.0,9,4.0,N,-1,47.648920000000004,-2.76399
2843,2013,ATMO HAUTS DE FRANCE,FR11N10,NORD-PAS-DE-CALAIS-ZUR,FR10004,Malo-les-Bains,Urbaine,PM10,Fond,B,Oui,mesures fixes,,Moy. annuelle,26.0,25.920062805301427,µg-m3,98.0,100,98.0,R,1,51.04858,2.42004
2821,2013,ATMO OCCITANIE,FR08N10,LANGUEDOC-ROUSSILLON-ZUR,FR08614,Nimes Gauzy,Urbaine,PM10,Fond,4,Oui,mesures fixes,,Moy. annuelle,20.0,19.996661643676852,µg-m3,98.0,100,98.0,R,1,43.8344,4.3744
2866,2013,ATMO OCCITANIE,FR12A01,MIDI-PYRENEES-TOULOUSE,FR12040,CHAPITRE,Urbaine,PM10,Industrielle,B,Oui,mesures fixes,,Moy. annuelle,21.0,20.588339875316752,µg-m3,99.0,100,99.0,R,1,43.556375,1.403964
2841,2013,ATMO NOUVELLE-AQUITAINE,FR09N10,POITOU-CHARENTES-ZUR,FR09402,Avenue de Libération,Urbaine,PM10,Trafic,,Oui,mesures fixes,,Moy. annuelle,26.0,26.361809874348296,µg-m3,90.0,100,90.0,R,1,46.570004,0.323575
2840,2013,ATMO NOUVELLE-AQUITAINE,FR09N10,POITOU-CHARENTES-ZUR,FR09399,Niort Trafic 6,Urbaine,PM10,Trafic,G,Oui,mesures fixes,,Moy. annuelle,23.0,23.30873662168319,µg-m3,98.0,100,98.0,R,1,46.321976,-0.4664312
2839,2013,ATMO NOUVELLE-AQUITAINE,FR09N20,POITOU-CHARENTES-ZR,FR09302,Zoodyssée Chizé,Rurale régionale,PM10,Fond,F,Oui,mesures fixes,,Moy. annuelle,15.0,15.065296052632661,µg-m3,97.0,100,97.0,R,1,46.143173,-0.396042
2838,2013,ATMO NOUVELLE-AQUITAINE,FR09N20,POITOU-CHARENTES-ZR,FR09301,AIRVAULT 2,Périurbaine,PM10,Fond,A,Oui,mesures fixes,,Moy. annuelle,19.0,19.13044864226682,µg-m3,97.0,100,97.0,R,1,46.824368,-0.135461
2837,2013,ATMO NOUVELLE-AQUITAINE,FR09N10,POITOU-CHARENTES-ZUR,FR09204,La_Rochelle_trafic_3,Urbaine,PM10,Trafic,1,Oui,mesures fixes,,Moy. annuelle,25.0,25.165211551376714,µg-m3,86.0,98,85.0,R,1,46.16355,-1.146367
2836,2013,ATMO NOUVELLE-AQUITAINE,FR09N10,POITOU-CHARENTES-ZUR,FR09203,La Pallice3 LR,Périurbaine,PM10,Industrielle,1,Oui,mesures fixes,,Moy. annuelle,23.0,23.200011646865573,µg-m3,98.0,100,98.0,R,1,46.161609999999996,-1.211203
2835,2013,ATMO NOUVELLE-AQUITAINE,FR09N20,POITOU-CHARENTES-ZR,FR09105,Roumazières trafic,Urbaine,PM10,Trafic,1,Oui,mesures fixes,,Moy. annuelle,19.0,19.441207547169636,µg-m3,94.0,97,91.0,R,1,45.886185,0.581483
2834,2013,ATMO NOUVELLE-AQUITAINE,FR09N10,POITOU-CHARENTES-ZUR,FR09104,Angoulême trafic,Urbaine,PM10,Trafic,1,Oui,mesures fixes,,Moy. annuelle,31.0,30.914886515353807,µg-m3,99.0,17,17.0,N,-1,45.64578,0.159472
2833,2013,ATMO NOUVELLE-AQUITAINE,FR09N10,POITOU-CHARENTES-ZUR,FR09103,Square Pablo Casals,Urbaine,PM10,Fond,F,Oui,mesures fixes,,Moy. annuelle,20.0,20.305972238422026,µg-m3,98.0,100,98.0,R,1,45.647415,0.167167
2832,2013,ATMO NOUVELLE-AQUITAINE,FR09N20,POITOU-CHARENTES-ZR,FR09033,Rivedoux plage,Urbaine,PM10,Fond,3,Oui,mesures fixes,,Moy. annuelle,22.0,22.04749119718416,µg-m3,57.0,91,52.0,N,-1,46.157883,-1.267922
2831,2013,ATMO NOUVELLE-AQUITAINE,FR09N10,POITOU-CHARENTES-ZUR,FR09019,Niort Ferry,Urbaine,PM10,Fond,G,Oui,mesures fixes,,Moy. annuelle,20.0,20.203088252761265,µg-m3,96.0,100,96.0,R,1,46.329586,-0.45888900000000005
2830,2013,ATMO NOUVELLE-AQUITAINE,FR09N20,POITOU-CHARENTES-ZR,FR09017,COGNAC,Urbaine,PM10,Fond,SPO,Oui,mesures fixes,,Moy. annuelle,20.0,20.28730732177269,µg-m3,95.0,100,95.0,R,1,45.694725,-0.323361
2829,2013,ATMO NOUVELLE-AQUITAINE,FR09N10,POITOU-CHARENTES-ZUR,FR09016,La Couronne,Périurbaine,PM10,Fond,G,Oui,mesures fixes,,Moy. annuelle,22.0,22.486796637869148,µg-m3,98.0,100,98.0,R,1,45.60882,0.099722
2828,2013,ATMO NOUVELLE-AQUITAINE,FR09N10,POITOU-CHARENTES-ZUR,FR09015,Les Couronneries,Périurbaine,PM10,Fond,SPO,Oui,mesures fixes,,Moy. annuelle,18.0,18.404437216866075,µg-m3,98.0,100,98.0,R,1,46.586918,0.358583
2827,2013,ATMO NOUVELLE-AQUITAINE,FR09N10,POITOU-CHARENTES-ZUR,FR09010,Chasseneuil,Périurbaine,PM10,Fond,F,Oui,mesures fixes,,Moy. annuelle,16.0,16.31978021978025,µg-m3,95.0,2,2.0,N,-1,46.655334,0.376236
2826,2013,ATMO NOUVELLE-AQUITAINE,FR09N10,POITOU-CHARENTES-ZUR,FR09008,Aytré,Périurbaine,PM10,Fond,1,Oui,mesures fixes,,Moy. annuelle,22.0,22.132279383179945,µg-m3,90.0,98,88.0,R,1,46.135155,-1.117042
2825,2013,ATMO NOUVELLE-AQUITAINE,FR09N10,POITOU-CHARENTES-ZUR,FR09003,place de VERDUN,Urbaine,PM10,Fond,SPO,Oui,mesures fixes,,Moy. annuelle,24.0,23.553616971944145,µg-m3,98.0,100,98.0,R,1,46.162556,-1.1536030000000002
2824,2013,ATMO OCCITANIE,FR08N10,LANGUEDOC-ROUSSILLON-ZUR,FR08714,Perpignan Les Carmes,Urbaine,PM10,Fond,3,Oui,mesures fixes,,Moy. annuelle,17.0,16.828930079775017,µg-m3,97.0,100,97.0,R,1,42.6955,2.90053
2823,2013,ATMO OCCITANIE,FR08N10,LANGUEDOC-ROUSSILLON-ZUR,FR08713,Perpignan Rigaud,Urbaine,PM10,Fond,3,Oui,mesures fixes,,Moy. annuelle,14.0,13.538306683538536,µg-m3,99.0,100,99.0,R,1,42.6835,2.90351
2822,2013,ATMO OCCITANIE,FR08N10,LANGUEDOC-ROUSSILLON-ZUR,FR08616,Nimes Planas,Urbaine,PM10,Trafic,2,Oui,mesures fixes,,Moy. annuelle,24.0,23.70251177394033,µg-m3,95.0,100,95.0,R,1,43.8299,4.3619900000000005
2842,2013,ATMO NOUVELLE-AQUITAINE,FR09N10,POITOU-CHARENTES-ZUR,FR09404,Poitiers Centre  Augouard,Urbaine,PM10,Fond,1,Oui,mesures fixes,,Moy. annuelle,9.0,9.47166666666666,µg-m3,25.0,5,1.0,N,-1,46.583890000000004,0.345556
2819,2013,ATMO OCCITANIE,FR08A01,LANGUEDOC-ROUSSILLON-MONTPELLIER,FR08030,Pompignane,Urbaine,PM10,Trafic,2,Oui,mesures fixes,,Moy. annuelle,23.0,23.35148122230001,µg-m3,98.0,100,98.0,R,1,43.6096,3.8987800000000004
2847,2013,ATMO HAUTS DE FRANCE,FR11N10,NORD-PAS-DE-CALAIS-ZUR,FR10026,Calais Parmentier,Urbaine,PM10,Fond,0,Oui,mesures fixes,,Moy. annuelle,25.0,25.297284477645693,µg-m3,96.0,100,96.0,R,1,50.9578,1.89008
2748,2013,ATMO SUD,FR03N10,PROVENCE-ALPES-COTE-D-AZUR-ZUR,FR02041,SALON,Urbaine,PM10,Fond,1,Oui,mesures fixes,,Moy. annuelle,28.0,27.715724443406124,µg-m3,98.0,100,98.0,R,1,43.639002000000005,5.101097
2807,2013,ATMO AUVERGNE-RHÔNE-ALPES,FR07N10,AUVERGNE-ZUR,FR07010,Montlucon Centre,Urbaine,PM10,Trafic,C,Oui,mesures fixes,,Moy. annuelle,20.0,19.769767173812014,µg-m3,99.0,100,99.0,R,1,46.344001,2.5980000000000003
2816,2013,ATMO OCCITANIE,FR08A01,LANGUEDOC-ROUSSILLON-MONTPELLIER,FR08016,Montpellier Prés d'Arènes,Urbaine,PM10,Fond,1,Oui,mesures fixes,,Moy. annuelle,19.0,19.029348837209312,µg-m3,98.0,100,98.0,R,1,43.5915,3.8868099999999997
2815,2013,ATMO AUVERGNE-RHÔNE-ALPES,FR07N20,AUVERGNE-ZR,FR07045,Issoire Ecole Centre,Urbaine,PM10,Fond,1,Oui,mesures fixes,,Moy. annuelle,16.0,15.519380252101204,µg-m3,85.0,51,43.0,N,-1,45.545421999999995,3.248247
2814,2013,ATMO AUVERGNE-RHÔNE-ALPES,FR07N10,AUVERGNE-ZUR,FR07043,Le Puy Coiffier,Urbaine,PM10,Trafic,1,Oui,mesures fixes,,Moy. annuelle,18.0,18.23598202672399,µg-m3,97.0,100,97.0,R,1,45.04286,3.8888059999999998
2813,2013,ATMO AUVERGNE-RHÔNE-ALPES,FR07A01,AUVERGNE-CLERMONT,FR07039,Chamalières Europe,Urbaine,PM10,Trafic,,Oui,mesures fixes,,Moy. annuelle,21.0,21.448150757308827,µg-m3,97.0,100,97.0,R,1,45.774728,3.0629779999999998
2812,2013,ATMO AUVERGNE-RHÔNE-ALPES,FR07A01,AUVERGNE-CLERMONT,FR07034,Clermont-Esplanade Gare,Urbaine,PM10,Trafic,B,Oui,mesures fixes,,Moy. annuelle,22.0,21.76524249422534,µg-m3,99.0,100,99.0,R,1,45.775696,3.09625
2811,2013,ATMO AUVERGNE-RHÔNE-ALPES,FR07N20,AUVERGNE-ZR,FR07031,Rageade,Rurale régionale,PM10,Fond,1,Oui,mesures fixes,,Moy. annuelle,11.0,10.569047067007169,µg-m3,95.0,52,49.0,N,-1,45.10472,3.277361
2810,2013,ATMO AUVERGNE-RHÔNE-ALPES,FR07N20,AUVERGNE-ZR,FR07028,Les Ancizes,Périurbaine,PM10,Industrielle,C,Oui,mesures fixes,,Moy. annuelle,13.0,12.672243702402884,µg-m3,97.0,100,97.0,R,1,45.929333,2.829806
2809,2013,ATMO AUVERGNE-RHÔNE-ALPES,FR07N20,AUVERGNE-ZR,FR07022,Paray le Fresil,Rurale régionale,PM10,Fond,B,Oui,mesures fixes,,Moy. annuelle,14.0,13.812327161941527,µg-m3,97.0,100,97.0,R,1,46.652668,3.6006669999999996
2795,2013,ATMO HAUTS DE FRANCE,FR06A01,NORD-PAS-DE-CALAIS-DOUAI-BETHUNE-VALENCIENNES,FR06001,Valenciennes Acacias,Urbaine,PM10,Fond,B,Oui,mesures fixes,,Moy. annuelle,27.0,26.85469669823201,µg-m3,90.0,99,89.0,R,1,50.35853,3.5080400000000003
2808,2013,ATMO AUVERGNE-RHÔNE-ALPES,FR07N10,AUVERGNE-ZUR,FR07011,Aurillac Centre,Urbaine,PM10,Trafic,C,Oui,mesures fixes,,Moy. annuelle,15.0,15.287214294002654,µg-m3,98.0,100,98.0,R,1,44.923164,2.436778
2796,2013,ATMO HAUTS DE FRANCE,FR06A01,NORD-PAS-DE-CALAIS-DOUAI-BETHUNE-VALENCIENNES,FR06003,Douai Theuriet,Urbaine,PM10,Fond,B,Oui,mesures fixes,,Moy. annuelle,29.0,29.15844420096885,µg-m3,73.0,100,73.0,N,-1,50.37822,3.06586
2805,2013,ATMO AUVERGNE-RHÔNE-ALPES,FR07A01,AUVERGNE-CLERMONT,FR07008,Delille,Urbaine,PM10,Fond,B,Oui,mesures fixes,,Moy. annuelle,20.0,19.71609580221559,µg-m3,99.0,45,44.0,N,-1,45.78089,3.094583
2804,2013,ATMO AUVERGNE-RHÔNE-ALPES,FR07A01,AUVERGNE-CLERMONT,FR07004,Montferrand,Urbaine,PM10,Fond,,Oui,mesures fixes,,Moy. annuelle,21.0,21.224247355573088,µg-m3,98.0,100,98.0,R,1,45.79728,3.113833
2803,2013,ATMO HAUTS DE FRANCE,FR11N20,NORD-PAS-DE-CALAIS-ZR,FR06133,Cartignies,Rurale près des villes,PM10,Fond,A,Oui,mesures fixes,,Moy. annuelle,20.0,20.338249069292246,µg-m3,96.0,99,95.0,R,1,50.09225,3.8500300000000003
2802,2013,ATMO HAUTS DE FRANCE,FR06A01,NORD-PAS-DE-CALAIS-DOUAI-BETHUNE-VALENCIENNES,FR06023,Escautpont,Périurbaine,PM10,Fond,SPO,Oui,mesures fixes,,Moy. annuelle,24.0,24.030462210358774,µg-m3,94.0,100,94.0,R,1,50.420288,3.5518110000000003
2801,2013,ATMO HAUTS DE FRANCE,FR06A01,NORD-PAS-DE-CALAIS-DOUAI-BETHUNE-VALENCIENNES,FR06022,Station SNET,Périurbaine,PM10,Industrielle,F,Oui,mesures fixes,,Moy. annuelle,24.0,23.766311426877927,µg-m3,97.0,99,96.0,R,1,50.366409999999995,3.3394199999999996
2800,2013,ATMO HAUTS DE FRANCE,FR06A01,NORD-PAS-DE-CALAIS-DOUAI-BETHUNE-VALENCIENNES,FR06011,Denain Villars,Périurbaine,PM10,Fond,0,Oui,mesures fixes,,Moy. annuelle,25.0,24.80127441638769,µg-m3,96.0,100,96.0,R,1,50.322759999999995,3.3959300000000003
2799,2013,ATMO HAUTS DE FRANCE,FR11N20,NORD-PAS-DE-CALAIS-ZR,FR06009,Cambrai Gambetta,Urbaine,PM10,Fond,F,Oui,mesures fixes,,Moy. annuelle,24.0,24.143785204654694,µg-m3,92.0,99,91.0,R,1,50.17249,3.2360599999999997
2798,2013,ATMO HAUTS DE FRANCE,FR11N10,NORD-PAS-DE-CALAIS-ZUR,FR06007,Maubeuge Joyeuse,Urbaine,PM10,Fond,,Oui,mesures fixes,,Moy. annuelle,20.0,19.61008987417615,µg-m3,97.0,98,95.0,R,1,50.27936,3.9769099999999997
2806,2013,ATMO AUVERGNE-RHÔNE-ALPES,FR07A01,AUVERGNE-CLERMONT,FR07009,Jardin Lecoq,Urbaine,PM10,Fond,B,Oui,mesures fixes,,Moy. annuelle,19.0,19.319223985890343,µg-m3,98.0,99,97.0,R,1,45.772166999999996,3.0875
2794,2013,ATMO NORMANDIE,FR05N30,HAUTE-NORMANDIE-ZI,FR05100,Le Havre Lafaurie-descendant,Urbaine,PM10,Trafic,A,Oui,mesures fixes,,Moy. annuelle,30.0,29.7610352673496,µg-m3,40.0,50,20.0,N,-1,49.4994,0.10836099999999999
2793,2013,ATMO NORMANDIE,FR05N30,HAUTE-NORMANDIE-ZI,FR05089,Le Havre Lafaurie-montant,Urbaine,PM10,Trafic,1,Oui,mesures fixes,,Moy. annuelle,25.0,24.906947009517637,µg-m3,90.0,90,80.0,N,-1,49.500187,0.110903
2772,2013,AIRPARIF,FR04N20,ILE-DE-FRANCE-ZR,FR04066,Zone rurale Sud,Rurale régionale,PM10,Fond,SPO,Oui,mesures fixes,,Moy. annuelle,20.0,19.9645080946451,µg-m3,92.0,99,92.0,R,1,48.364166,2.236944
2817,2013,ATMO OCCITANIE,FR08A01,LANGUEDOC-ROUSSILLON-MONTPELLIER,FR08018,Montpellier St Gely,Périurbaine,PM10,Fond,3,Oui,mesures fixes,,Moy. annuelle,18.0,17.85258172577102,µg-m3,99.0,100,99.0,R,1,43.6926,3.80021
2792,2013,ATMO NORMANDIE,FR05N30,HAUTE-NORMANDIE-ZI,FR05084,NDGravenchon Pasteur,Urbaine,PM10,Industrielle,A,Oui,mesures fixes,,Moy. annuelle,24.0,23.62972814623694,µg-m3,98.0,100,97.0,R,1,49.493332,0.571853
2791,2013,ATMO NORMANDIE,FR05N30,HAUTE-NORMANDIE-ZI,FR05078,Le Havre Massillon,Urbaine,PM10,Fond,B,Oui,mesures fixes,,Moy. annuelle,23.0,22.800607334733527,µg-m3,98.0,100,98.0,R,1,49.4983,0.142706
2790,2013,ATMO NORMANDIE,FR05N30,HAUTE-NORMANDIE-ZI,FR05074,Le Havre Ec. Herriot,Urbaine,PM10,Fond,B,Oui,mesures fixes,,Moy. annuelle,22.0,22.203415030780405,µg-m3,98.0,100,98.0,R,1,49.48963,0.100703
2789,2013,ATMO NORMANDIE,FR05N30,HAUTE-NORMANDIE-ZI,FR05054,Le Havre Les Neiges,Urbaine,PM10,Industrielle,1,Oui,mesures fixes,,Moy. annuelle,23.0,23.26165887850303,µg-m3,98.0,100,98.0,R,1,49.481087,0.16528900000000002
2788,2013,AIRPARIF,FR04A01,ILE-DE-FRANCE-PARIS,FR04329,Bld peripherique Est,Urbaine,PM10,Trafic,,Oui,mesures fixes,,Moy. annuelle,41.0,40.73439896189688,µg-m3,97.0,100,97.0,R,1,48.838615000000004,2.4127810000000003
2787,2013,AIRPARIF,FR04N20,ILE-DE-FRANCE-ZR,FR04328,Zone Rurale SE,Rurale régionale,PM10,Fond,SPO,Oui,mesures fixes,,Moy. annuelle,18.0,17.622177761610264,µg-m3,97.0,97,94.0,R,1,48.3547,2.6453
2786,2013,AIRPARIF,FR04N20,ILE-DE-FRANCE-ZR,FR04322,Zone Rurale Ouest,Rurale régionale,PM10,Fond,SPO,Oui,mesures fixes,,Moy. annuelle,20.0,19.80649120736463,µg-m3,97.0,100,97.0,R,1,48.8603,1.6767
2785,2013,AIRPARIF,FR04A01,ILE-DE-FRANCE-PARIS,FR04319,TREMBLAY-EN-FRANCE,Périurbaine,PM10,Fond,SPO,Oui,mesures fixes,,Moy. annuelle,25.0,24.946648345083073,µg-m3,96.0,99,96.0,R,1,48.95555,2.575278
2784,2013,AIRPARIF,FR04A01,ILE-DE-FRANCE-PARIS,FR04179,PARIS Stade Lenglen,Urbaine,PM10,Fond,C,Oui,mesures fixes,,Moy. annuelle,10.0,9.616666666666672,µg-m3,91.0,2,2.0,N,-1,48.830387,2.269889
2783,2013,AIRPARIF,FR04N20,ILE-DE-FRANCE-ZR,FR04173,RD934 Coulommiers,Périurbaine,PM10,Trafic,,Oui,mesures fixes,,Moy. annuelle,30.0,29.932247143461776,µg-m3,96.0,84,81.0,N,-1,48.8059,3.084158
2782,2013,AIRPARIF,FR04N20,ILE-DE-FRANCE-ZR,FR04158,Zone Rurale NO,Rurale régionale,PM10,Fond,,Oui,mesures fixes,,Moy. annuelle,19.0,18.57976118682911,µg-m3,95.0,100,95.0,R,1,49.063087,1.866381
2781,2013,AIRPARIF,FR04A01,ILE-DE-FRANCE-PARIS,FR04156,BOBIGNY,Urbaine,PM10,Fond,B,Oui,mesures fixes,,Moy. annuelle,24.0,24.06591505607243,µg-m3,96.0,99,96.0,R,1,48.902504,2.4525
2780,2013,AIRPARIF,FR04A01,ILE-DE-FRANCE-PARIS,FR04150,LA DEFENSE,Urbaine,PM10,Fond,A,Oui,mesures fixes,,Moy. annuelle,24.0,23.565036343476656,µg-m3,93.0,100,93.0,R,1,48.891388,2.240556
2779,2013,AIRPARIF,FR04A01,ILE-DE-FRANCE-PARIS,FR04143,PARIS Centre,Urbaine,PM10,Fond,,Oui,mesures fixes,,Moy. annuelle,26.0,26.30492803122709,µg-m3,94.0,100,94.0,R,1,48.859001,2.351
2778,2013,AIRPARIF,FR04A01,ILE-DE-FRANCE-PARIS,FR04131,Boulevard Haussmann,Urbaine,PM10,Trafic,SPO,Oui,mesures fixes,,Moy. annuelle,34.0,33.651926040061625,µg-m3,96.0,100,96.0,R,1,48.873333,2.330278
2777,2013,AIRPARIF,FR04A01,ILE-DE-FRANCE-PARIS,FR04123,RN2-PANTIN,Urbaine,PM10,Trafic,C,Oui,mesures fixes,,Moy. annuelle,40.0,39.72735052754969,µg-m3,98.0,100,97.0,R,1,48.90222,2.390833
2776,2013,AIRPARIF,FR04A01,ILE-DE-FRANCE-PARIS,FR04122,RN6-MELUN,Périurbaine,PM10,Trafic,,Oui,mesures fixes,,Moy. annuelle,28.0,28.047825064660245,µg-m3,97.0,100,97.0,R,1,48.528057000000004,2.653611
2775,2013,AIRPARIF,FR04A01,ILE-DE-FRANCE-PARIS,FR04118,Place de l'Opéra,Urbaine,PM10,Trafic,,Oui,mesures fixes,,Moy. annuelle,33.0,33.445974499089296,µg-m3,94.0,100,94.0,R,1,48.870274,2.3325
2774,2013,AIRPARIF,FR04A01,ILE-DE-FRANCE-PARIS,FR04099,NOGENT-SUR-MARNE,Urbaine,PM10,Fond,2,Oui,mesures fixes,,Moy. annuelle,23.0,23.033467496036035,µg-m3,94.0,100,94.0,R,1,48.840557000000004,2.484444
2773,2013,AIRPARIF,FR04A01,ILE-DE-FRANCE-PARIS,FR04098,LOGNES,Urbaine,PM10,Fond,A,Oui,mesures fixes,,Moy. annuelle,23.0,23.319106944615665,µg-m3,93.0,100,93.0,R,1,48.84028,2.635278
2797,2013,ATMO HAUTS DE FRANCE,FR06A01,NORD-PAS-DE-CALAIS-DOUAI-BETHUNE-VALENCIENNES,FR06006,Valenciennes Wallon,Urbaine,PM10,Trafic,B,Oui,mesures fixes,,Moy. annuelle,28.0,28.233879184859585,µg-m3,94.0,100,94.0,R,1,50.36425,3.52273
2771,2013,AIRPARIF,FR04A01,ILE-DE-FRANCE-PARIS,FR04058,Auto A1 -Saint-Denis,Urbaine,PM10,Trafic,2,Oui,mesures fixes,,Moy. annuelle,51.0,50.68918067226889,µg-m3,98.0,100,98.0,R,1,48.925278000000006,2.356667
2770,2013,AIRPARIF,FR04A01,ILE-DE-FRANCE-PARIS,FR04034,VITRY-SUR-SEINE,Urbaine,PM10,Fond,2,Oui,mesures fixes,,Moy. annuelle,24.0,24.332915173237648,µg-m3,96.0,100,96.0,R,1,48.7758,2.3758
2818,2013,ATMO OCCITANIE,FR08N20,LANGUEDOC-ROUSSILLON-ZR,FR08020,Lunel Viel,Périurbaine,PM10,Industrielle,4,Oui,mesures fixes,,Moy. annuelle,17.0,17.272707914349922,µg-m3,98.0,99,96.0,R,1,43.6758,4.08838
2758,2013,ATMO SUD,FR03A03,PROVENCE-ALPES-COTE-D-AZUR-TOULON,FR03068,TOULON FOCH,Urbaine,PM10,Trafic,1,Oui,mesures fixes,,Moy. annuelle,31.0,31.43591113269176,µg-m3,96.0,98,94.0,R,1,43.126821,5.9216050000000005
2767,2013,AIRPARIF,FR04A01,ILE-DE-FRANCE-PARIS,FR04023,CERGY-PONTOISE,Urbaine,PM10,Fond,1,Oui,mesures fixes,,Moy. annuelle,23.0,22.558268733850266,µg-m3,97.0,100,97.0,R,1,49.04639,2.043056
2766,2013,AIRPARIF,FR04A01,ILE-DE-FRANCE-PARIS,FR04012,Place Victor Basch,Urbaine,PM10,Trafic,2,Oui,mesures fixes,,Moy. annuelle,40.0,39.78833430063828,µg-m3,98.0,100,98.0,R,1,48.827778,2.3275
2765,2013,AIRPARIF,FR04A01,ILE-DE-FRANCE-PARIS,FR04004,PARIS 18eme,Urbaine,PM10,Fond,A,Oui,mesures fixes,,Moy. annuelle,26.0,26.22044831286532,µg-m3,96.0,100,96.0,R,1,48.891666,2.3466669999999996
2764,2013,AIRPARIF,FR04A01,ILE-DE-FRANCE-PARIS,FR04002,GENNEVILLIERS,Urbaine,PM10,Fond,2,Oui,mesures fixes,,Moy. annuelle,26.0,26.330163779898644,µg-m3,97.0,100,97.0,R,1,48.92972,2.294722
2763,2013,AIRPARIF,FR04A01,ILE-DE-FRANCE-PARIS,FR04001,ISSY-LES-MOULINEAUX,Urbaine,PM10,Fond,A,Oui,mesures fixes,,Moy. annuelle,27.0,27.35421836228291,µg-m3,99.0,56,55.0,N,-1,48.8225,2.2692
2762,2013,ATMO SUD,FR03A01,PROVENCE-ALPES-COTE-D-AZUR-AVIGNON,FR03087,Avignon Semard,Urbaine,PM10,Trafic,2,Oui,mesures fixes,,Moy. annuelle,25.0,24.576751751750823,µg-m3,92.0,99,91.0,R,1,43.937059999999995,4.824909
2769,2013,AIRPARIF,FR04A01,ILE-DE-FRANCE-PARIS,FR04031,Av Champs Elysees,Urbaine,PM10,Trafic,D,Oui,mesures fixes,,Moy. annuelle,39.0,38.63299720568576,µg-m3,94.0,100,94.0,R,1,48.86889,2.311944
2760,2013,ATMO SUD,FR03A01,PROVENCE-ALPES-COTE-D-AZUR-AVIGNON,FR03080,AVIGNON   MAIRIE,Urbaine,PM10,Fond,1,Oui,mesures fixes,,Moy. annuelle,20.0,20.388177689469952,µg-m3,84.0,95,80.0,N,-1,43.949673,4.804341
2746,2013,ATMO SUD,FR02N30,PROVENCE-ALPES-COTE-D-AZUR-ZI,FR02029,Chateauneuf La Mede,Périurbaine,PM10,Industrielle,,Oui,mesures fixes,,Moy. annuelle,29.0,28.82166825321052,µg-m3,96.0,100,96.0,R,1,43.399546,5.113214
2759,2013,ATMO SUD,FR03A03,PROVENCE-ALPES-COTE-D-AZUR-TOULON,FR03069,HYERES,Urbaine,PM10,Fond,1,Oui,mesures fixes,,Moy. annuelle,26.0,25.94573605902805,µg-m3,98.0,96,94.0,R,1,43.119737,6.131319
2747,2013,ATMO SUD,FR02N30,PROVENCE-ALPES-COTE-D-AZUR-ZI,FR02031,Marignane Ville,Urbaine,PM10,Fond,,Oui,mesures fixes,,Moy. annuelle,29.0,29.024674980099412,µg-m3,87.0,99,86.0,R,1,43.415689,5.216875
2756,2013,ATMO SUD,FR03A03,PROVENCE-ALPES-COTE-D-AZUR-TOULON,FR03062,TOULON CHALUCET,Urbaine,PM10,Fond,2,Oui,mesures fixes,,Moy. annuelle,28.0,27.71428571428411,µg-m3,91.0,100,91.0,R,1,43.127475,5.927086
2755,2013,ATMO SUD,FR03A02,PROVENCE-ALPES-COTE-D-AZUR-MARSEILLE,FR03043,MARSEILLE 5 AVENUES,Urbaine,PM10,Fond,B,Oui,mesures fixes,,Moy. annuelle,27.0,27.14801038062096,µg-m3,93.0,100,92.0,R,1,43.305287,5.394716000000001
2754,2013,ATMO SUD,FR03A02,PROVENCE-ALPES-COTE-D-AZUR-MARSEILLE,FR03030,GARDANNE,Périurbaine,PM10,Fond,2,Oui,mesures fixes,,Moy. annuelle,35.0,35.166357675785854,µg-m3,51.0,99,50.0,N,-1,43.453584,5.466672
2753,2013,ATMO SUD,FR03A02,PROVENCE-ALPES-COTE-D-AZUR-MARSEILLE,FR03029,AIX CENTRE ECOLE ART,Urbaine,PM10,Fond,1,Oui,mesures fixes,,Moy. annuelle,30.0,29.949317220541054,µg-m3,94.0,100,94.0,R,1,43.530285,5.440912
2752,2013,ATMO SUD,FR03A02,PROVENCE-ALPES-COTE-D-AZUR-MARSEILLE,FR03021,AIX ROY RENE,Urbaine,PM10,Trafic,1,Oui,mesures fixes,,Moy. annuelle,30.0,30.3535861500389,µg-m3,97.0,100,97.0,R,1,43.524075,5.448164
2751,2013,ATMO SUD,FR03A02,PROVENCE-ALPES-COTE-D-AZUR-MARSEILLE,FR03014,MARSEILLE ST LOUIS,Urbaine,PM10,Fond,1,Oui,mesures fixes,,Moy. annuelle,31.0,31.352336223504505,µg-m3,95.0,99,95.0,R,1,43.348048,5.360119
2750,2013,ATMO SUD,FR03A02,PROVENCE-ALPES-COTE-D-AZUR-MARSEILLE,FR03006,MARSEILLE RABATAU,Urbaine,PM10,Trafic,2,Oui,mesures fixes,,Moy. annuelle,36.0,36.29009913107077,µg-m3,94.0,99,93.0,R,1,43.276451,5.39736
2749,2013,ATMO SUD,FR03A02,PROVENCE-ALPES-COTE-D-AZUR-MARSEILLE,FR03002,MARSEILLE TIMONE,Urbaine,PM10,Trafic,1,Oui,mesures fixes,,Moy. annuelle,34.0,34.48421052631535,µg-m3,97.0,59,57.0,N,-1,43.29005,5.400252
2757,2013,ATMO SUD,FR03N20,PROVENCE-ALPES-COTE-D-AZUR-ZR,FR03067,BRIGNOLES,Périurbaine,PM10,Fond,0,Oui,mesures fixes,,Moy. annuelle,21.0,21.18788827074541,µg-m3,98.0,100,98.0,R,1,43.398731,6.075611
2745,2013,ATMO SUD,FR02N30,PROVENCE-ALPES-COTE-D-AZUR-ZI,FR02026,Miramas Centre Ville,Urbaine,PM10,Fond,B,Oui,mesures fixes,,Moy. annuelle,28.0,28.023887449962434,µg-m3,97.0,100,97.0,R,1,43.584693,5.0064519999999995
2761,2013,ATMO SUD,FR03A01,PROVENCE-ALPES-COTE-D-AZUR-AVIGNON,FR03084,LE PONTET,Périurbaine,PM10,Fond,1,Oui,mesures fixes,,Moy. annuelle,26.0,26.212217090067373,µg-m3,99.0,100,99.0,R,1,43.960144,4.856731
2723,2013,ATMO GRAND EST,FR01A01,LORRAINE-METZ,FR01005,Hayange,Périurbaine,PM10,Industrielle,A,Oui,mesures fixes,,Moy. annuelle,21.0,20.88138291690833,µg-m3,99.0,100,98.0,R,1,49.324721999999994,6.0761080000000005
2744,2013,ATMO SUD,FR03N10,PROVENCE-ALPES-COTE-D-AZUR-ZUR,FR02022,Arles,Urbaine,PM10,Fond,,Oui,mesures fixes,,Moy. annuelle,28.0,28.40189361958543,µg-m3,95.0,99,95.0,R,1,43.675114,4.62921
2743,2013,ATMO SUD,FR02N30,PROVENCE-ALPES-COTE-D-AZUR-ZI,FR02020,Rognac les Brets,Périurbaine,PM10,Industrielle,,Oui,mesures fixes,,Moy. annuelle,19.0,18.97798259088647,µg-m3,90.0,99,89.0,R,1,43.510802000000005,5.220046
2742,2013,ATMO SUD,FR03N10,PROVENCE-ALPES-COTE-D-AZUR-ZUR,FR02016,Salon de Provence,Urbaine,PM10,Fond,,Oui,mesures fixes,,Moy. annuelle,29.0,29.07796901893267,µg-m3,99.0,13,13.0,N,-1,43.638641,5.091892
2741,2013,ATMO SUD,FR02N30,PROVENCE-ALPES-COTE-D-AZUR-ZI,FR02013,Fos Les Carabins,Périurbaine,PM10,Industrielle,,Oui,mesures fixes,,Moy. annuelle,28.0,27.724133935810656,µg-m3,99.0,100,99.0,R,1,43.458927,4.934572
2740,2013,ATMO SUD,FR02N30,PROVENCE-ALPES-COTE-D-AZUR-ZI,FR02009,Port Saint Louis,Périurbaine,PM10,Industrielle,,Oui,mesures fixes,,Moy. annuelle,28.0,27.868528205852336,µg-m3,83.0,97,81.0,N,-1,43.39378,4.801024
2739,2013,ATMO SUD,FR02N30,PROVENCE-ALPES-COTE-D-AZUR-ZI,FR02008,Port de Bouc Leque,Urbaine,PM10,Industrielle,,Oui,mesures fixes,,Moy. annuelle,25.0,24.89233884966835,µg-m3,99.0,100,99.0,R,1,43.401952,4.981919
2738,2013,ATMO SUD,FR02N30,PROVENCE-ALPES-COTE-D-AZUR-ZI,FR02005,Martigues l'Ile,Urbaine,PM10,Fond,,Oui,mesures fixes,,Moy. annuelle,28.0,27.87766218585421,µg-m3,98.0,100,98.0,R,1,43.405297,5.051636
2737,2013,ATMO GRAND EST,FR01N20,LORRAINE-ZR,FR01060,Malroy,Rurale près des villes,PM10,Industrielle,1,Oui,mesures fixes,,Moy. annuelle,19.0,19.282134670488006,µg-m3,95.0,84,80.0,N,-1,49.16885,6.212669
2736,2013,ATMO GRAND EST,FR01A01,LORRAINE-METZ,FR01059,HAYANGE-MARSPICH,Périurbaine,PM10,Industrielle,3,Oui,mesures indicatives,,Moy. annuelle,18.0,18.124251986909908,µg-m3,98.0,100,98.0,R,1,49.3374,6.08207
2735,2013,ATMO GRAND EST,FR01A01,LORRAINE-METZ,FR01022,St-Julien-lès-Metz,Urbaine,PM10,Industrielle,B,Oui,mesures fixes,,Moy. annuelle,17.0,16.77316727659094,µg-m3,97.0,100,97.0,R,1,49.131115,6.207225
2768,2013,AIRPARIF,FR04A01,ILE-DE-FRANCE-PARIS,FR04024,GONESSE,Périurbaine,PM10,Fond,SPO,Oui,mesures fixes,,Moy. annuelle,24.0,24.06901932541109,µg-m3,98.0,97,95.0,R,1,48.990829999999995,2.444722
2733,2013,ATMO GRAND EST,FR01A01,LORRAINE-METZ,FR01019,Thionville-Piscine,Urbaine,PM10,Fond,A,Oui,mesures fixes,,Moy. annuelle,19.0,18.9142691951895,µg-m3,99.0,100,99.0,R,1,49.36861,6.160831
2734,2013,ATMO GRAND EST,FR01A01,LORRAINE-METZ,FR01020,Thionville-Centre,Urbaine,PM10,Fond,A,Oui,mesures fixes,,Moy. annuelle,21.0,21.262564871409328,µg-m3,99.0,100,99.0,R,1,49.358337,6.156942
2725,2013,ATMO GRAND EST,FR01A01,LORRAINE-METZ,FR01009,Gandrange,Périurbaine,PM10,Industrielle,,Oui,mesures fixes,,Moy. annuelle,19.0,18.874467561246018,µg-m3,93.0,100,93.0,R,1,49.271392999999996,6.1325
2726,2013,ATMO GRAND EST,FR01A01,LORRAINE-METZ,FR01010,La Maxe,Périurbaine,PM10,Fond,B,Oui,mesures fixes,,Moy. annuelle,16.0,15.879166666666668,µg-m3,100.0,1,1.0,N,-1,49.164165000000004,6.186392
2727,2013,ATMO GRAND EST,FR01A01,LORRAINE-METZ,FR01011,Metz-Centre,Urbaine,PM10,Fond,C,Oui,mesures fixes,,Moy. annuelle,24.0,23.8852702866111,µg-m3,95.0,99,94.0,R,1,49.119442,6.180833
2724,2013,ATMO GRAND EST,FR01A01,LORRAINE-METZ,FR01006,Florange,Périurbaine,PM10,Fond,C,Oui,mesures fixes,,Moy. annuelle,20.0,19.52712779973685,µg-m3,89.0,98,87.0,R,1,49.320831,6.14
2729,2013,ATMO GRAND EST,FR01N20,LORRAINE-ZR,FR01014,Pont-à-Mousson,Urbaine,PM10,Fond,,Oui,mesures indicatives,,Moy. annuelle,17.0,17.280671773718584,µg-m3,97.0,100,97.0,R,1,48.915,6.058336
2730,2013,ATMO GRAND EST,FR01N20,LORRAINE-ZR,FR01015,Blénod-lès-PAM,Urbaine,PM10,Industrielle,B,Oui,mesures indicatives,,Moy. annuelle,20.0,20.361825726141,µg-m3,99.0,100,99.0,R,1,48.884724,6.051392
2731,2013,ATMO GRAND EST,FR01N20,LORRAINE-ZR,FR01016,Atton,Rurale près des villes,PM10,Industrielle,B,Oui,mesures fixes,,Moy. annuelle,17.0,16.701127644734015,µg-m3,98.0,100,98.0,R,1,48.886387,6.093611
2732,2013,ATMO GRAND EST,FR01A01,LORRAINE-METZ,FR01017,Metz-Sablon,Urbaine,PM10,Fond,A,Oui,mesures fixes,,Moy. annuelle,19.0,18.50795072788344,µg-m3,70.0,29,20.0,N,-1,49.096109999999996,6.172778
2728,2013,ATMO GRAND EST,FR01A01,LORRAINE-METZ,FR01012,Metz-Borny,Urbaine,PM10,Fond,C,Oui,mesures fixes,,Moy. annuelle,19.0,18.835516840882846,µg-m3,98.0,100,98.0,R,1,49.110283,6.223336
7,2014,ATMO GRAND EST,FR01N20,LORRAINE-ZR,FR01015,Blénod-lès-PAM,Urbaine,PM10,Industrielle,B,Oui,mesures indicatives,,Moy. annuelle,18.0,18.47335067391818,µg-m3,97.0,100,97.0,R,1,48.884724,6.051392
10,2014,ATMO GRAND EST,FR01A01,LORRAINE-METZ,FR01020,Thionville-Centre,Urbaine,PM10,Fond,A,Oui,mesures fixes,,Moy. annuelle,21.0,20.850343683336455,µg-m3,96.0,100,96.0,R,1,49.358337,6.156942
1,2014,ATMO GRAND EST,FR01A01,LORRAINE-METZ,FR01005,Hayange,Périurbaine,PM10,Industrielle,A,Oui,mesures fixes,,Moy. annuelle,17.0,16.867498672331894,µg-m3,92.0,93,86.0,R,1,49.324721999999994,6.0761080000000005
2,2014,ATMO GRAND EST,FR01A01,LORRAINE-METZ,FR01006,Florange,Périurbaine,PM10,Fond,C,Oui,mesures fixes,,Moy. annuelle,24.0,24.456099169192953,µg-m3,89.0,97,87.0,R,1,49.320831,6.14
3,2014,ATMO GRAND EST,FR01A01,LORRAINE-METZ,FR01009,Gandrange,Périurbaine,PM10,Industrielle,,Oui,mesures fixes,,Moy. annuelle,21.0,21.255993858509203,µg-m3,97.0,100,97.0,R,1,49.271392999999996,6.1325
4,2014,ATMO GRAND EST,FR01A01,LORRAINE-METZ,FR01011,Metz-Centre,Urbaine,PM10,Fond,C,Oui,mesures fixes,,Moy. annuelle,25.0,24.923116733753186,µg-m3,99.0,100,99.0,R,1,49.119442,6.180833
5,2014,ATMO GRAND EST,FR01A01,LORRAINE-METZ,FR01012,Metz-Borny,Urbaine,PM10,Fond,C,Oui,mesures fixes,,Moy. annuelle,19.0,18.803149982102394,µg-m3,96.0,99,96.0,R,1,49.110283,6.223336
6,2014,ATMO GRAND EST,FR01N20,LORRAINE-ZR,FR01014,Pont-à-Mousson,Urbaine,PM10,Fond,,Oui,mesures indicatives,,Moy. annuelle,18.0,18.011763302314602,µg-m3,96.0,100,96.0,R,1,48.915,6.058336
8,2014,ATMO GRAND EST,FR01N20,LORRAINE-ZR,FR01016,Atton,Rurale près des villes,PM10,Industrielle,B,Oui,mesures fixes,,Moy. annuelle,15.0,15.216165633407945,µg-m3,98.0,100,98.0,R,1,48.886387,6.093611
14,2014,ATMO GRAND EST,FR01A01,LORRAINE-METZ,FR01064,Metz- Pont Grilles,Urbaine,PM10,Trafic,3,Oui,mesures fixes,,Moy. annuelle,21.0,20.788841698842308,µg-m3,96.0,92,89.0,R,1,49.12508,6.1812190000000005
11,2014,ATMO GRAND EST,FR01A01,LORRAINE-METZ,FR01022,St-Julien-lès-Metz,Urbaine,PM10,Industrielle,B,Oui,mesures fixes,,Moy. annuelle,16.0,15.57136526946161,µg-m3,95.0,100,95.0,R,1,49.131115,6.207225
21,2014,ATMO SUD,FR02N30,PROVENCE-ALPES-COTE-D-AZUR-ZI,FR02026,Miramas Centre Ville,Urbaine,PM10,Fond,B,Oui,mesures fixes,,Moy. annuelle,23.0,23.481386559582887,µg-m3,97.0,99,97.0,R,1,43.584693,5.0064519999999995
12,2014,ATMO GRAND EST,FR01A01,LORRAINE-METZ,FR01059,HAYANGE-MARSPICH,Périurbaine,PM10,Industrielle,3,Oui,mesures indicatives,,Moy. annuelle,19.0,18.989067826495702,µg-m3,97.0,100,97.0,R,1,49.3374,6.08207
13,2014,ATMO GRAND EST,FR01N20,LORRAINE-ZR,FR01060,Malroy,Rurale près des villes,PM10,Industrielle,1,Oui,mesures fixes,,Moy. annuelle,18.0,18.110440074906414,µg-m3,98.0,100,98.0,R,1,49.16885,6.212669
15,2014,ATMO SUD,FR02N30,PROVENCE-ALPES-COTE-D-AZUR-ZI,FR02005,Martigues l'Ile,Urbaine,PM10,Fond,,Oui,mesures fixes,,Moy. annuelle,18.0,18.078970642427475,µg-m3,95.0,98,93.0,R,1,43.405297,5.051636
16,2014,ATMO SUD,FR02N30,PROVENCE-ALPES-COTE-D-AZUR-ZI,FR02008,Port de Bouc Leque,Urbaine,PM10,Industrielle,,Oui,mesures fixes,,Moy. annuelle,22.0,22.275981675392075,µg-m3,87.0,100,87.0,R,1,43.401952,4.981919
17,2014,ATMO SUD,FR02N30,PROVENCE-ALPES-COTE-D-AZUR-ZI,FR02009,Port Saint Louis,Périurbaine,PM10,Industrielle,,Oui,mesures fixes,,Moy. annuelle,20.0,19.578590819348626,µg-m3,95.0,98,93.0,R,1,43.39378,4.801024
18,2014,ATMO SUD,FR02N30,PROVENCE-ALPES-COTE-D-AZUR-ZI,FR02013,Fos Les Carabins,Périurbaine,PM10,Industrielle,,Oui,mesures fixes,,Moy. annuelle,25.0,24.893363686533316,µg-m3,88.0,94,83.0,N,-1,43.458927,4.934572
19,2014,ATMO SUD,FR02N30,PROVENCE-ALPES-COTE-D-AZUR-ZI,FR02020,Rognac les Brets,Périurbaine,PM10,Industrielle,,Oui,mesures fixes,,Moy. annuelle,16.0,16.158030361016518,µg-m3,92.0,97,89.0,R,1,43.510802000000005,5.220046
9,2014,ATMO GRAND EST,FR01A01,LORRAINE-METZ,FR01019,Thionville-Piscine,Urbaine,PM10,Fond,A,Oui,mesures fixes,,Moy. annuelle,18.0,17.64713740458034,µg-m3,96.0,100,96.0,R,1,49.36861,6.160831
22,2014,ATMO SUD,FR02N30,PROVENCE-ALPES-COTE-D-AZUR-ZI,FR02029,Chateauneuf La Mede,Périurbaine,PM10,Industrielle,,Oui,mesures fixes,,Moy. annuelle,25.0,25.108184143222807,µg-m3,76.0,100,76.0,N,-1,43.399546,5.113214
25,2014,ATMO SUD,FR03A02,PROVENCE-ALPES-COTE-D-AZUR-MARSEILLE,FR03006,MARSEILLE RABATAU,Urbaine,PM10,Trafic,2,Oui,mesures fixes,,Moy. annuelle,33.0,33.45112165106795,µg-m3,89.0,100,89.0,R,1,43.276451,5.39736
24,2014,ATMO SUD,FR03N10,PROVENCE-ALPES-COTE-D-AZUR-ZUR,FR02041,SALON,Urbaine,PM10,Fond,1,Oui,mesures fixes,,Moy. annuelle,20.0,19.575535019455298,µg-m3,97.0,96,94.0,R,1,43.639002000000005,5.101097
69,2014,ATMO HAUTS DE FRANCE,FR11N10,NORD-PAS-DE-CALAIS-ZUR,FR06007,Maubeuge Joyeuse,Urbaine,PM10,Fond,,Oui,mesures fixes,,Moy. annuelle,19.0,18.587860130111636,µg-m3,99.0,99,98.0,R,1,50.27936,3.9769099999999997
26,2014,ATMO SUD,FR03A02,PROVENCE-ALPES-COTE-D-AZUR-MARSEILLE,FR03014,MARSEILLE ST LOUIS,Urbaine,PM10,Fond,1,Oui,mesures fixes,,Moy. annuelle,27.0,26.913777994156952,µg-m3,95.0,99,94.0,R,1,43.348048,5.360119
27,2014,ATMO SUD,FR03A02,PROVENCE-ALPES-COTE-D-AZUR-MARSEILLE,FR03021,AIX ROY RENE,Urbaine,PM10,Trafic,1,Oui,mesures fixes,,Moy. annuelle,23.0,23.20865888518312,µg-m3,96.0,100,96.0,R,1,43.524075,5.448164
28,2014,ATMO SUD,FR03A02,PROVENCE-ALPES-COTE-D-AZUR-MARSEILLE,FR03029,AIX CENTRE ECOLE ART,Urbaine,PM10,Fond,1,Oui,mesures fixes,,Moy. annuelle,24.0,24.060856269112406,µg-m3,90.0,100,90.0,R,1,43.530285,5.440912
29,2014,ATMO SUD,FR03A02,PROVENCE-ALPES-COTE-D-AZUR-MARSEILLE,FR03030,GARDANNE,Périurbaine,PM10,Fond,2,Oui,mesures fixes,,Moy. annuelle,29.0,28.857579169597273,µg-m3,81.0,100,81.0,N,-1,43.453584,5.466672
30,2014,ATMO SUD,FR03A02,PROVENCE-ALPES-COTE-D-AZUR-MARSEILLE,FR03043,MARSEILLE 5 AVENUES,Urbaine,PM10,Fond,B,Oui,mesures fixes,,Moy. annuelle,25.0,24.608309786795445,µg-m3,90.0,99,89.0,R,1,43.305287,5.394716000000001
31,2014,ATMO SUD,FR03A03,PROVENCE-ALPES-COTE-D-AZUR-TOULON,FR03062,TOULON CHALUCET,Urbaine,PM10,Fond,2,Oui,mesures fixes,,Moy. annuelle,22.0,22.337470771629995,µg-m3,89.0,66,59.0,N,-1,43.127475,5.927086
32,2014,ATMO SUD,FR03N20,PROVENCE-ALPES-COTE-D-AZUR-ZR,FR03067,BRIGNOLES,Périurbaine,PM10,Fond,0,Oui,mesures fixes,,Moy. annuelle,17.0,16.815978092630264,µg-m3,97.0,99,96.0,R,1,43.398731,6.075611
33,2014,ATMO SUD,FR03A03,PROVENCE-ALPES-COTE-D-AZUR-TOULON,FR03068,TOULON FOCH,Urbaine,PM10,Trafic,1,Oui,mesures fixes,,Moy. annuelle,26.0,25.949134548810314,µg-m3,99.0,100,99.0,R,1,43.126821,5.9216050000000005
34,2014,ATMO SUD,FR03A03,PROVENCE-ALPES-COTE-D-AZUR-TOULON,FR03069,HYERES,Urbaine,PM10,Fond,1,Oui,mesures fixes,,Moy. annuelle,19.0,19.013809805079653,µg-m3,98.0,99,97.0,R,1,43.119737,6.131319
35,2014,ATMO SUD,FR03A01,PROVENCE-ALPES-COTE-D-AZUR-AVIGNON,FR03080,AVIGNON   MAIRIE,Urbaine,PM10,Fond,1,Oui,mesures fixes,,Moy. annuelle,20.0,19.51834957764798,µg-m3,89.0,98,88.0,R,1,43.949673,4.804341
36,2014,ATMO SUD,FR03A01,PROVENCE-ALPES-COTE-D-AZUR-AVIGNON,FR03084,LE PONTET,Périurbaine,PM10,Fond,1,Oui,mesures fixes,,Moy. annuelle,24.0,23.601405810684103,µg-m3,99.0,99,97.0,R,1,43.960144,4.856731
37,2014,ATMO SUD,FR03A01,PROVENCE-ALPES-COTE-D-AZUR-AVIGNON,FR03087,Avignon Semard,Urbaine,PM10,Trafic,2,Oui,mesures fixes,,Moy. annuelle,23.0,23.198986043182092,µg-m3,97.0,99,96.0,R,1,43.937059999999995,4.824909
38,2014,AIRPARIF,FR04A01,ILE-DE-FRANCE-PARIS,FR04002,GENNEVILLIERS,Urbaine,PM10,Fond,2,Oui,mesures fixes,,Moy. annuelle,22.0,22.015616113744112,µg-m3,96.0,100,96.0,R,1,48.92972,2.294722
39,2014,AIRPARIF,FR04A01,ILE-DE-FRANCE-PARIS,FR04004,PARIS 18eme,Urbaine,PM10,Fond,A,Oui,mesures fixes,,Moy. annuelle,23.0,22.76965185792995,µg-m3,97.0,100,97.0,R,1,48.891666,2.3466669999999996
40,2014,AIRPARIF,FR04A01,ILE-DE-FRANCE-PARIS,FR04012,Place Victor Basch,Urbaine,PM10,Trafic,2,Oui,mesures fixes,,Moy. annuelle,33.0,32.9567393058918,µg-m3,99.0,100,99.0,R,1,48.827778,2.3275
41,2014,AIRPARIF,FR04A01,ILE-DE-FRANCE-PARIS,FR04023,CERGY-PONTOISE,Urbaine,PM10,Fond,1,Oui,mesures fixes,,Moy. annuelle,20.0,19.68097544102382,µg-m3,99.0,100,99.0,R,1,49.04639,2.043056
42,2014,AIRPARIF,FR04A01,ILE-DE-FRANCE-PARIS,FR04031,Av Champs Elysees,Urbaine,PM10,Trafic,D,Oui,mesures fixes,,Moy. annuelle,34.0,34.38483839131494,µg-m3,93.0,100,93.0,R,1,48.86889,2.311944
43,2014,AIRPARIF,FR04A01,ILE-DE-FRANCE-PARIS,FR04034,VITRY-SUR-SEINE,Urbaine,PM10,Fond,2,Oui,mesures fixes,,Moy. annuelle,20.0,20.15003546937813,µg-m3,97.0,100,97.0,R,1,48.7758,2.3758
44,2014,AIRPARIF,FR04A01,ILE-DE-FRANCE-PARIS,FR04058,Auto A1 -Saint-Denis,Urbaine,PM10,Trafic,2,Oui,mesures fixes,,Moy. annuelle,46.0,45.585989044430846,µg-m3,94.0,100,94.0,R,1,48.925278000000006,2.356667
45,2014,AIRPARIF,FR04N20,ILE-DE-FRANCE-ZR,FR04066,Zone rurale Sud,Rurale régionale,PM10,Fond,C,Oui,mesures fixes,,Moy. annuelle,17.0,16.563421401857887,µg-m3,95.0,100,95.0,R,1,48.364166,2.236944
23,2014,ATMO SUD,FR02N30,PROVENCE-ALPES-COTE-D-AZUR-ZI,FR02031,Marignane Ville,Urbaine,PM10,Fond,,Oui,mesures fixes,,Moy. annuelle,23.0,23.437039016568125,µg-m3,86.0,100,85.0,R,1,43.415689,5.216875
20,2014,ATMO SUD,FR03N10,PROVENCE-ALPES-COTE-D-AZUR-ZUR,FR02022,Arles,Urbaine,PM10,Fond,,Oui,mesures fixes,,Moy. annuelle,26.0,26.043624161071943,µg-m3,97.0,99,97.0,R,1,43.675114,4.62921
93,2014,ATMO OCCITANIE,FR08N10,LANGUEDOC-ROUSSILLON-ZUR,FR08616,Nimes Planas,Urbaine,PM10,Trafic,2,Oui,mesures fixes,,Moy. annuelle,23.0,23.065702048848248,µg-m3,99.0,100,99.0,R,1,43.8299,4.3619900000000005
47,2014,AIRPARIF,FR04A01,ILE-DE-FRANCE-PARIS,FR04099,NOGENT-SUR-MARNE,Urbaine,PM10,Fond,2,Oui,mesures fixes,,Moy. annuelle,20.0,19.711231260751955,µg-m3,93.0,100,93.0,R,1,48.840557000000004,2.484444
50,2014,AIRPARIF,FR04A01,ILE-DE-FRANCE-PARIS,FR04123,RN2-PANTIN,Urbaine,PM10,Trafic,C,Oui,mesures fixes,,Moy. annuelle,36.0,36.02156440617147,µg-m3,95.0,100,95.0,R,1,48.90222,2.390833
51,2014,AIRPARIF,FR04A01,ILE-DE-FRANCE-PARIS,FR04131,Boulevard Haussmann,Urbaine,PM10,Trafic,B,Oui,mesures fixes,,Moy. annuelle,27.0,27.166647264260842,µg-m3,98.0,100,98.0,R,1,48.873333,2.330278
52,2014,AIRPARIF,FR04A01,ILE-DE-FRANCE-PARIS,FR04143,PARIS Centre,Urbaine,PM10,Fond,,Oui,mesures fixes,,Moy. annuelle,22.0,22.335474261201128,µg-m3,96.0,100,96.0,R,1,48.859001,2.351
53,2014,AIRPARIF,FR04A01,ILE-DE-FRANCE-PARIS,FR04150,LA DEFENSE,Urbaine,PM10,Fond,A,Oui,mesures fixes,,Moy. annuelle,20.0,19.712539260691045,µg-m3,95.0,99,94.0,R,1,48.891388,2.240556
54,2014,AIRPARIF,FR04A01,ILE-DE-FRANCE-PARIS,FR04156,BOBIGNY,Urbaine,PM10,Fond,B,Oui,mesures fixes,,Moy. annuelle,22.0,22.436731275424705,µg-m3,95.0,100,95.0,R,1,48.902504,2.4525
55,2014,AIRPARIF,FR04N20,ILE-DE-FRANCE-ZR,FR04158,Zone Rurale NO,Rurale régionale,PM10,Fond,,Oui,mesures fixes,,Moy. annuelle,17.0,17.08404965452633,µg-m3,97.0,100,97.0,R,1,49.063087,1.866381
56,2014,AIRPARIF,FR04N20,ILE-DE-FRANCE-ZR,FR04173,RD934 Coulommiers,Périurbaine,PM10,Trafic,,Oui,mesures fixes,,Moy. annuelle,31.0,30.52064301815153,µg-m3,96.0,100,96.0,R,1,48.8059,3.084158
57,2014,AIRPARIF,FR04A01,ILE-DE-FRANCE-PARIS,FR04179,PARIS Stade Lenglen,Urbaine,PM10,Fond,C,Oui,mesures fixes,,Moy. annuelle,21.0,20.924141267537426,µg-m3,94.0,100,94.0,R,1,48.830387,2.269889
58,2014,AIRPARIF,FR04N20,ILE-DE-FRANCE-ZR,FR04181,RAMBOUILLET,Périurbaine,PM10,Fond,,Oui,mesures fixes,,Moy. annuelle,20.0,19.806514657980465,µg-m3,75.0,5,4.0,N,-1,48.63373,1.830529
59,2014,AIRPARIF,FR04A01,ILE-DE-FRANCE-PARIS,FR04319,TREMBLAY-EN-FRANCE,Périurbaine,PM10,Fond,A,Oui,mesures fixes,,Moy. annuelle,22.0,21.719995120166008,µg-m3,94.0,100,94.0,R,1,48.95555,2.575278
60,2014,AIRPARIF,FR04N20,ILE-DE-FRANCE-ZR,FR04322,Zone Rurale Ouest,Rurale régionale,PM10,Fond,C,Oui,mesures fixes,,Moy. annuelle,17.0,17.251743424967266,µg-m3,96.0,100,96.0,R,1,48.8603,1.6767
61,2014,AIRPARIF,FR04A01,ILE-DE-FRANCE-PARIS,FR04329,Bld peripherique Est,Urbaine,PM10,Trafic,,Oui,mesures fixes,,Moy. annuelle,34.0,34.40407208050541,µg-m3,98.0,100,98.0,R,1,48.838615000000004,2.4127810000000003
62,2014,ATMO NORMANDIE,FR05N30,HAUTE-NORMANDIE-ZI,FR05054,Le Havre Les Neiges,Urbaine,PM10,Industrielle,1,Oui,mesures fixes,,Moy. annuelle,20.0,20.222130118060445,µg-m3,91.0,100,91.0,R,1,49.481087,0.16528900000000002
63,2014,ATMO NORMANDIE,FR05N30,HAUTE-NORMANDIE-ZI,FR05074,Le Havre Ec. Herriot,Urbaine,PM10,Fond,B,Oui,mesures fixes,,Moy. annuelle,19.0,18.776530255333647,µg-m3,98.0,100,98.0,R,1,49.48963,0.100703
64,2014,ATMO NORMANDIE,FR05N30,HAUTE-NORMANDIE-ZI,FR05078,Le Havre Massillon,Urbaine,PM10,Fond,B,Oui,mesures fixes,,Moy. annuelle,20.0,19.985942454491287,µg-m3,97.0,100,97.0,R,1,49.4983,0.142706
65,2014,ATMO NORMANDIE,FR05N30,HAUTE-NORMANDIE-ZI,FR05089,Le Havre Lafaurie-montant,Urbaine,PM10,Trafic,1,Oui,mesures fixes,,Moy. annuelle,20.0,19.932516625830605,µg-m3,98.0,100,98.0,R,1,49.500187,0.110903
66,2014,ATMO HAUTS DE FRANCE,FR06A01,NORD-PAS-DE-CALAIS-DOUAI-BETHUNE-VALENCIENNES,FR06001,Valenciennes Acacias,Urbaine,PM10,Fond,B,Oui,mesures fixes,,Moy. annuelle,21.0,21.42201511335011,µg-m3,91.0,100,91.0,R,1,50.35853,3.5080400000000003
67,2014,ATMO HAUTS DE FRANCE,FR06A01,NORD-PAS-DE-CALAIS-DOUAI-BETHUNE-VALENCIENNES,FR06003,Douai Theuriet,Urbaine,PM10,Fond,B,Oui,mesures fixes,,Moy. annuelle,21.0,20.597366195481513,µg-m3,94.0,100,94.0,R,1,50.37822,3.06586
68,2014,ATMO HAUTS DE FRANCE,FR06A01,NORD-PAS-DE-CALAIS-DOUAI-BETHUNE-VALENCIENNES,FR06006,Valenciennes Wallon,Urbaine,PM10,Trafic,B,Oui,mesures fixes,,Moy. annuelle,25.0,25.016518179629227,µg-m3,95.0,100,95.0,R,1,50.36425,3.52273
94,2014,ATMO OCCITANIE,FR08N10,LANGUEDOC-ROUSSILLON-ZUR,FR08617,Nimes La Calmette,Périurbaine,PM10,Fond,1,Oui,mesures fixes,,Moy. annuelle,17.0,17.08459459459459,µg-m3,96.0,4,4.0,N,-1,43.9254,4.26581
70,2014,ATMO HAUTS DE FRANCE,FR11N20,NORD-PAS-DE-CALAIS-ZR,FR06009,Cambrai Gambetta,Urbaine,PM10,Fond,F,Oui,mesures fixes,,Moy. annuelle,21.0,20.764004683840717,µg-m3,98.0,100,97.0,R,1,50.17249,3.2360599999999997
49,2014,AIRPARIF,FR04A01,ILE-DE-FRANCE-PARIS,FR04122,RN6-MELUN,Périurbaine,PM10,Trafic,,Oui,mesures fixes,,Moy. annuelle,27.0,26.860957840678267,µg-m3,96.0,100,96.0,R,1,48.528057000000004,2.653611
71,2014,ATMO HAUTS DE FRANCE,FR06A01,NORD-PAS-DE-CALAIS-DOUAI-BETHUNE-VALENCIENNES,FR06011,Denain Villars,Périurbaine,PM10,Fond,B,Oui,mesures fixes,,Moy. annuelle,20.0,19.848117010249872,µg-m3,99.0,100,99.0,R,1,50.322759999999995,3.3959300000000003
73,2014,ATMO HAUTS DE FRANCE,FR06A01,NORD-PAS-DE-CALAIS-DOUAI-BETHUNE-VALENCIENNES,FR06023,Escautpont,Périurbaine,PM10,Fond,1,Oui,mesures fixes,,Moy. annuelle,19.0,19.272634766807926,µg-m3,95.0,99,94.0,R,1,50.420288,3.5518110000000003
48,2014,AIRPARIF,FR04A01,ILE-DE-FRANCE-PARIS,FR04118,Place de l'Opéra,Urbaine,PM10,Trafic,,Oui,mesures fixes,,Moy. annuelle,28.0,28.246987366375226,µg-m3,94.0,100,94.0,R,1,48.870274,2.3325
83,2014,ATMO AUVERGNE-RHÔNE-ALPES,FR07A01,AUVERGNE-CLERMONT,FR07039,Chamalières Europe,Urbaine,PM10,Trafic,,Oui,mesures fixes,,Moy. annuelle,19.0,19.330131159163297,µg-m3,97.0,100,97.0,R,1,45.774728,3.0629779999999998
74,2014,ATMO HAUTS DE FRANCE,FR11N20,NORD-PAS-DE-CALAIS-ZR,FR06133,Cartignies,Rurale près des villes,PM10,Fond,A,Oui,mesures fixes,,Moy. annuelle,16.0,15.771678028943938,µg-m3,95.0,100,95.0,R,1,50.09225,3.8500300000000003
75,2014,ATMO AUVERGNE-RHÔNE-ALPES,FR07A01,AUVERGNE-CLERMONT,FR07004,Montferrand,Urbaine,PM10,Fond,,Oui,mesures fixes,,Moy. annuelle,17.0,16.900667603654767,µg-m3,98.0,100,97.0,R,1,45.79728,3.113833
76,2014,ATMO AUVERGNE-RHÔNE-ALPES,FR07A01,AUVERGNE-CLERMONT,FR07009,Jardin Lecoq,Urbaine,PM10,Fond,B,Oui,mesures fixes,,Moy. annuelle,16.0,16.213353708711193,µg-m3,97.0,100,97.0,R,1,45.772166999999996,3.0875
77,2014,ATMO AUVERGNE-RHÔNE-ALPES,FR07N10,AUVERGNE-ZUR,FR07010,Montlucon Centre,Urbaine,PM10,Trafic,C,Oui,mesures fixes,,Moy. annuelle,16.0,16.044758157834494,µg-m3,99.0,100,99.0,R,1,46.344001,2.5980000000000003
78,2014,ATMO AUVERGNE-RHÔNE-ALPES,FR07N10,AUVERGNE-ZUR,FR07011,Aurillac Centre,Urbaine,PM10,Trafic,C,Oui,mesures fixes,,Moy. annuelle,14.0,13.988545001779736,µg-m3,97.0,99,96.0,R,1,44.923164,2.436778
79,2014,ATMO AUVERGNE-RHÔNE-ALPES,FR07N20,AUVERGNE-ZR,FR07022,Paray le Fresil,Rurale régionale,PM10,Fond,B,Oui,mesures fixes,,Moy. annuelle,12.0,11.849927219797163,µg-m3,94.0,100,94.0,R,1,46.652668,3.6006669999999996
80,2014,ATMO AUVERGNE-RHÔNE-ALPES,FR07N20,AUVERGNE-ZR,FR07028,Les Ancizes,Périurbaine,PM10,Industrielle,C,Oui,mesures fixes,,Moy. annuelle,11.0,10.868353831599768,µg-m3,97.0,99,97.0,R,1,45.929333,2.829806
81,2014,ATMO AUVERGNE-RHÔNE-ALPES,FR07N20,AUVERGNE-ZR,FR07031,Rageade,Rurale régionale,PM10,Fond,1,Oui,mesures fixes,,Moy. annuelle,10.0,9.523830372780294,µg-m3,92.0,99,91.0,R,1,45.10472,3.277361
82,2014,ATMO AUVERGNE-RHÔNE-ALPES,FR07A01,AUVERGNE-CLERMONT,FR07034,Clermont-Esplanade Gare,Urbaine,PM10,Trafic,B,Oui,mesures fixes,,Moy. annuelle,18.0,18.3883881540445,µg-m3,98.0,100,98.0,R,1,45.775696,3.09625
84,2014,ATMO AUVERGNE-RHÔNE-ALPES,FR07N10,AUVERGNE-ZUR,FR07043,Le Puy Coiffier,Urbaine,PM10,Trafic,1,Oui,mesures fixes,,Moy. annuelle,18.0,17.818917946257493,µg-m3,95.0,100,95.0,R,1,45.04286,3.8888059999999998
72,2014,ATMO HAUTS DE FRANCE,FR06A01,NORD-PAS-DE-CALAIS-DOUAI-BETHUNE-VALENCIENNES,FR06022,Station SNET,Périurbaine,PM10,Industrielle,F,Oui,mesures fixes,,Moy. annuelle,21.0,20.91720964030515,µg-m3,94.0,100,94.0,R,1,50.366409999999995,3.3394199999999996
85,2014,ATMO AUVERGNE-RHÔNE-ALPES,FR07N20,AUVERGNE-ZR,FR07045,Issoire Ecole Centre,Urbaine,PM10,Fond,1,Oui,mesures fixes,,Moy. annuelle,14.0,13.962560301212944,µg-m3,97.0,100,97.0,R,1,45.545421999999995,3.248247
86,2014,ATMO OCCITANIE,FR08A01,LANGUEDOC-ROUSSILLON-MONTPELLIER,FR08016,Montpellier Prés d'Arènes,Urbaine,PM10,Fond,1,Oui,mesures fixes,,Moy. annuelle,18.0,17.914591392649893,µg-m3,95.0,99,94.0,R,1,43.5915,3.8868099999999997
87,2014,ATMO OCCITANIE,FR08A01,LANGUEDOC-ROUSSILLON-MONTPELLIER,FR08018,Montpellier St Gely,Périurbaine,PM10,Fond,3,Oui,mesures fixes,,Moy. annuelle,16.0,15.643944996533381,µg-m3,99.0,100,99.0,R,1,43.6926,3.80021
88,2014,ATMO OCCITANIE,FR08N20,LANGUEDOC-ROUSSILLON-ZR,FR08020,Lunel Viel,Périurbaine,PM10,Industrielle,4,Oui,mesures fixes,,Moy. annuelle,18.0,17.974713696747575,µg-m3,100.0,100,100.0,R,1,43.6758,4.08838
89,2014,ATMO OCCITANIE,FR08N20,LANGUEDOC-ROUSSILLON-ZR,FR08026,MEZE TRAFIC,Périurbaine,PM10,Trafic,1,Oui,mesures fixes,,Moy. annuelle,19.0,18.60205102551272,µg-m3,97.0,94,91.0,R,1,43.4282,3.60356
90,2014,ATMO OCCITANIE,FR08A01,LANGUEDOC-ROUSSILLON-MONTPELLIER,FR08030,Pompignane,Urbaine,PM10,Trafic,2,Oui,mesures fixes,,Moy. annuelle,22.0,21.894767373031907,µg-m3,96.0,100,96.0,R,1,43.6096,3.8987800000000004
91,2014,ATMO OCCITANIE,FR08N20,LANGUEDOC-ROUSSILLON-ZR,FR08252,GARNOR03,Périurbaine,PM10,Industrielle,1,Oui,mesures fixes,,Moy. annuelle,16.0,16.231033287101273,µg-m3,99.0,100,99.0,R,1,44.054475,4.697408
92,2014,ATMO OCCITANIE,FR08N10,LANGUEDOC-ROUSSILLON-ZUR,FR08614,Nimes Gauzy,Urbaine,PM10,Fond,4,Oui,mesures fixes,,Moy. annuelle,19.0,18.599038906901363,µg-m3,99.0,100,99.0,R,1,43.8344,4.3744
46,2014,AIRPARIF,FR04A01,ILE-DE-FRANCE-PARIS,FR04098,LOGNES,Urbaine,PM10,Fond,A,Oui,mesures fixes,,Moy. annuelle,20.0,20.30117804226376,µg-m3,94.0,100,94.0,R,1,48.84028,2.635278
95,2014,ATMO OCCITANIE,FR08N10,LANGUEDOC-ROUSSILLON-ZUR,FR08713,Perpignan Rigaud,Urbaine,PM10,Fond,3,Oui,mesures fixes,,Moy. annuelle,15.0,14.99447288806144,µg-m3,99.0,99,98.0,R,1,42.6835,2.90351
145,2014,ATMO GRAND EST,FR14N20,CHAMPAGNE-ARDENNE-ZR,FR14008,REVIN,Rurale nationale,PM10,Fond,j,Oui,mesures indicatives,,Moy. annuelle,13.0,13.4677138094629,µg-m3,89.0,100,89.0,R,1,49.907779999999995,4.63
166,2014,ATMO GRAND EST,FR16A02,ALSACE-STRASBOURG,FR16034,STG Clemenceau,Urbaine,PM10,Trafic,3,Oui,mesures fixes,,Moy. annuelle,27.0,26.523333740978842,µg-m3,96.0,98,93.0,R,1,48.59043,7.744983
119,2014,ATMO HAUTS DE FRANCE,FR11N10,NORD-PAS-DE-CALAIS-ZUR,FR10026,Calais Parmentier,Urbaine,PM10,Fond,1,Oui,mesures fixes,,Moy. annuelle,22.0,22.136950583560804,µg/m3,92.0,100,92.0,R,1,50.9578,1.89008
